[
  {
    "title": "Tày Cốc Pảng Homestay",
    "stars": "4,8",
    "num_reviews": "78",
    "category": "UNKNOWN",
    "address": "195B, Du Già, Yên Minh, Hà Giang, Việt Nam",
    "latitude": 22.9260906,
    "longitude": 105.2279957,
    "opening_time": [],
    "contact_url": "http://booking.com/",
    "phone": "+84 356 517 712",
    "reviews": [],
    "busy_data": {},
    "about": {}
  },
  {
    "title": "Four Points by Sheraton Ha Giang",
    "stars": "4,8",
    "num_reviews": "UNKNOWN",
    "category": "UNKNOWN",
    "address": "Cluster 12, Ha Giang 2 Ward, Tuyen Quang Province, Hà Giang, 310000, Việt Nam",
    "latitude": 22.8337655,
    "longitude": 104.9890712,
    "opening_time": [],
    "contact_url": "https://www.marriott.com/en-us/hotels/hanhp-four-points-ha-giang/overview/?scid=f2ae0541-1279-4f24-b197-a979c79310b0",
    "phone": "+84 219 3846 666",
    "reviews": [],
    "busy_data": {},
    "about": {}
  },
  {
    "title": "Khách sạn Friend Hotel",
    "stars": "4,8",
    "num_reviews": "752",
    "category": "UNKNOWN",
    "address": "Hữu Nghị, Phương Thiện, Hà Giang, Việt Nam",
    "latitude": 22.8057929,
    "longitude": 104.9750908,
    "opening_time": [],
    "contact_url": "UNKNOWN",
    "phone": "+84 919 218 383",
    "reviews": [],
    "busy_data": {},
    "about": {}
  },
  {
    "title": "Silk River Hotel",
    "stars": "4,4",
    "num_reviews": "656",
    "category": "UNKNOWN",
    "address": "90 Nguyễn Trãi, P. Nguyễn Trãi, Hà Giang, 100000, Việt Nam",
    "latitude": 22.8108529,
    "longitude": 104.979326,
    "opening_time": [],
    "contact_url": "https://silkriverhotel.com/",
    "phone": "+84 889 775 678",
    "reviews": [],
    "busy_data": {},
    "about": {}
  },
  {
    "title": "Khách sạn Phoenix Hà Giang",
    "stars": "4,3",
    "num_reviews": "23",
    "category": "UNKNOWN",
    "address": "92T Nguyễn Trãi, P. Nguyễn Trãi, Hà Giang, 310000, Việt Nam",
    "latitude": 22.8104461,
    "longitude": 104.9791893,
    "opening_time": [],
    "contact_url": "http://phoenixhotelhagiang.com/",
    "phone": "+84 914 688 158",
    "reviews": [],
    "busy_data": {},
    "about": {}
  },
  {
    "title": "Khách sạn Cao Nguyên",
    "stars": "3,8",
    "num_reviews": "104",
    "category": "UNKNOWN",
    "address": "297 Nguyễn Thái Học, P. Trần Phú, Hà Giang, 310000, Việt Nam",
    "latitude": 22.8309077,
    "longitude": 104.9861415,
    "opening_time": [],
    "contact_url": "http://caonguyenhotel.vn/",
    "phone": "+84 963 885 511",
    "reviews": [],
    "busy_data": {},
    "about": {}
  },
  {
    "title": "Khách sạn Tiamo Hà Giang",
    "stars": "3,9",
    "num_reviews": "174",
    "category": "UNKNOWN",
    "address": "56 Nguyễn Thái Học, P. Minh Khai, Hà Giang, Việt Nam",
    "latitude": 22.8258412,
    "longitude": 104.9859243,
    "opening_time": [],
    "contact_url": "https://m.facebook.com/hagiang.tiamo.hotel/",
    "phone": "+84 949 796 556",
    "reviews": [],
    "busy_data": {},
    "about": {}
  },
  {
    "title": "Khách Sạn Đức Lan",
    "stars": "3,9",
    "num_reviews": "161",
    "category": "UNKNOWN",
    "address": "143 Trần Hưng Đạo, P. Nguyễn Trãi, Hà Giang, Việt Nam",
    "latitude": 22.8295212,
    "longitude": 104.9825158,
    "opening_time": [],
    "contact_url": "UNKNOWN",
    "phone": "+84 219 2210 344",
    "reviews": [],
    "busy_data": {},
    "about": {}
  },
  {
    "title": "Garden Hotel II",
    "stars": "4,7",
    "num_reviews": "UNKNOWN",
    "category": "UNKNOWN",
    "address": "43 Nguyễn Thái Học, P. Minh Khai, Hà Giang, 310000, Việt Nam",
    "latitude": 22.8208972,
    "longitude": 104.9842465,
    "opening_time": [],
    "contact_url": "UNKNOWN",
    "phone": "+84 775 263 939",
    "reviews": [],
    "busy_data": {},
    "about": {}
  },
  {
    "title": "Huyền An Hotel",
    "stars": "3,6",
    "num_reviews": "36",
    "category": "UNKNOWN",
    "address": "Trần Phú Cốc Pài, Xín Mần, Hà Giang, Việt Nam",
    "latitude": 22.6841541,
    "longitude": 104.4618634,
    "opening_time": [],
    "contact_url": "https://business.google.com/create?fp=8756747356303164853&hl=vi&authuser=0&gmbsrc=-vi-et-ip-z-gmb-s-z-l~mrc%7Cclaimbz%7Cu&ppsrc=GMBMI&utm_campaign=-vi-et-ip-z-gmb-s-z-l~mrc%7Cclaimbz%7Cu&utm_source=gmb_mrc81&utm_medium=et&getstarted&lis=0",
    "phone": "+84 219 3836 176",
    "reviews": [],
    "busy_data": {},
    "about": {}
  },
  {
    "title": "Khách sạn Yên Biên Luxury 4 sao",
    "stars": "4,5",
    "num_reviews": "31",
    "category": "UNKNOWN",
    "address": "517 Nguyễn Trãi, P. Nguyễn Trãi, Hà Giang, Việt Nam",
    "latitude": 22.8292187,
    "longitude": 104.9837632,
    "opening_time": [],
    "contact_url": "http://www.yenbienluxury.vn/",
    "phone": "+84 219 3899 999",
    "reviews": [],
    "busy_data": {},
    "about": {}
  },
  {
    "title": "Khách sạn Huy Hoàn",
    "stars": "3,9",
    "num_reviews": "13.154",
    "category": "UNKNOWN",
    "address": "395 Nguyễn Trãi, P. Nguyễn Trãi, Hà Giang, Việt Nam",
    "latitude": 22.8230876,
    "longitude": 104.9831892,
    "opening_time": [],
    "contact_url": "https://huyhoanhotel.com/",
    "phone": "+84 219 3861 288",
    "reviews": [],
    "busy_data": {},
    "about": {}
  },
  {
    "title": "Tớ Dày Du Già Village",
    "stars": "4,8",
    "num_reviews": "6",
    "category": "UNKNOWN",
    "address": "Làng Khác, Yên Minh, Hà Giang 310000, Việt Nam",
    "latitude": 22.9340153,
    "longitude": 105.2019027,
    "opening_time": [],
    "contact_url": "https://www.facebook.com/todayvillage/",
    "phone": "+84 867 895 168",
    "reviews": [],
    "busy_data": {},
    "about": {}
  },
  {
    "title": "An Khang Hotel Hà giang",
    "stars": "4,7",
    "num_reviews": "UNKNOWN",
    "category": "UNKNOWN",
    "address": "220 Nguyễn Trãi, P. Nguyễn Trãi, Hà Giang, Việt Nam",
    "latitude": 22.8165824,
    "longitude": 104.9813675,
    "opening_time": [],
    "contact_url": "https://www.facebook.com/profile.php?id=61557928983103&mibextid=LQQJ4d",
    "phone": "+84 812 966 566",
    "reviews": [],
    "busy_data": {},
    "about": {}
  },
  {
    "title": "Long Hotel",
    "stars": "4,0",
    "num_reviews": "133",
    "category": "UNKNOWN",
    "address": "Hotel - Long Hotel - coffee & restaurants, 134b Lý Tự Trọng, P. Minh Khai, Hà Giang, Việt Nam",
    "latitude": 22.8236046,
    "longitude": 104.9896467,
    "opening_time": [],
    "contact_url": "UNKNOWN",
    "phone": "+84 342 475 666",
    "reviews": [],
    "busy_data": {},
    "about": {}
  },
  {
    "title": "Ruby Hotel",
    "stars": "3,9",
    "num_reviews": "15",
    "category": "UNKNOWN",
    "address": "49 Đường Lâm Đồng, P. Trần Phú, Hà Giang, 310000, Việt Nam",
    "latitude": 22.8315714,
    "longitude": 104.9874205,
    "opening_time": [],
    "contact_url": "UNKNOWN",
    "phone": "+84 912 356 969",
    "reviews": [],
    "busy_data": {},
    "about": {}
  },
  {
    "title": "Ha Giang Hostel",
    "stars": "4,9",
    "num_reviews": "316",
    "category": "UNKNOWN",
    "address": "thôn Lúp, Hà Giang, 20000, Việt Nam",
    "latitude": 22.8175435,
    "longitude": 104.9594537,
    "opening_time": [],
    "contact_url": "http://hagianghostel.com/",
    "phone": "+84 982 818 385",
    "reviews": [],
    "busy_data": {},
    "about": {}
  },
  {
    "title": "Sky Hotel & Homestay Hà Giang",
    "stars": "4,9",
    "num_reviews": "13.154",
    "category": "UNKNOWN",
    "address": "Sky Building, No.15 Nguyễn Thái Học, Street, Hà Giang, 310000, Việt Nam",
    "latitude": 22.8203374,
    "longitude": 104.9839402,
    "opening_time": [],
    "contact_url": "https://www.facebook.com/skyhomestayhagiang",
    "phone": "+84 376 028 369",
    "reviews": [],
    "busy_data": {},
    "about": {}
  },
  {
    "title": "Khách sạn Bích Phương",
    "stars": "4,5",
    "num_reviews": "UNKNOWN",
    "category": "UNKNOWN",
    "address": "11B Hoàng Hữu Chuyên, Phương Thiện, Hà Giang, 310000, Việt Nam",
    "latitude": 22.8019458,
    "longitude": 104.9789141,
    "opening_time": [],
    "contact_url": "UNKNOWN",
    "phone": "+84 942 426 588",
    "reviews": [],
    "busy_data": {},
    "about": {}
  },
  {
    "title": "Hoa Cương Hotel 2",
    "stars": "4,9",
    "num_reviews": "50",
    "category": "UNKNOWN",
    "address": "QL2/Số 66 tổ 1, Cầu mè, Vị Xuyên, Hà Giang 20000, Việt Nam",
    "latitude": 22.8019327,
    "longitude": 104.9795276,
    "opening_time": [],
    "contact_url": "UNKNOWN",
    "phone": "+84 943 919 992",
    "reviews": [],
    "busy_data": {},
    "about": {}
  },
  {
    "title": "Homestay Chân Mây Chiêu Lầu Thi",
    "stars": "4,3",
    "num_reviews": "143",
    "category": "UNKNOWN",
    "address": "Núi Chiêu Lầu, Thi Xã, Hoàng Su Phì, Hà Giang, Việt Nam",
    "latitude": 22.6376857,
    "longitude": 104.6402695,
    "opening_time": [],
    "contact_url": "https://chanmaychieulauthi.wordpress.com/",
    "phone": "+84 943 060 666",
    "reviews": [],
    "busy_data": {},
    "about": {}
  },
  {
    "title": "Khách sạn Phúc Lâm",
    "stars": "4,6",
    "num_reviews": "59",
    "category": "UNKNOWN",
    "address": "257 Nguyễn Thái Học, P. Trần Phú, Hà Giang, 20106, Việt Nam",
    "latitude": 22.8298686,
    "longitude": 104.9859438,
    "opening_time": [],
    "contact_url": "UNKNOWN",
    "phone": "+84 989 751 818",
    "reviews": [],
    "busy_data": {},
    "about": {}
  },
  {
    "title": "Hoa Cương Hotel 2",
    "stars": "4,9",
    "num_reviews": "50",
    "category": "UNKNOWN",
    "address": "QL2/Số 66 tổ 1, Cầu mè, Vị Xuyên, Hà Giang 20000, Việt Nam",
    "latitude": 22.8019327,
    "longitude": 104.9795276,
    "opening_time": [],
    "contact_url": "UNKNOWN",
    "phone": "+84 943 919 992",
    "reviews": [],
    "busy_data": {},
    "about": {}
  },
  {
    "title": "Khách Sạn Ciao",
    "stars": "3,8",
    "num_reviews": "59",
    "category": "UNKNOWN",
    "address": "170 Trần Hưng Đạo, street, Hà Giang, 310000, Việt Nam",
    "latitude": 22.8300175,
    "longitude": 104.9821622,
    "opening_time": [],
    "contact_url": "UNKNOWN",
    "phone": "+84 971 152 268",
    "reviews": [],
    "busy_data": {},
    "about": {}
  },
  {
    "title": "Hoang Su Phi Lodge",
    "stars": "4,2",
    "num_reviews": "76",
    "category": "UNKNOWN",
    "address": "Thôn Nậm Hồng, Hoàng Su Phì, Hà Giang 313900, Việt Nam",
    "latitude": 22.5674594,
    "longitude": 104.7230914,
    "opening_time": [],
    "contact_url": "https://hoangsuphilodge.com/",
    "phone": "+84 866 196 878",
    "reviews": [],
    "busy_data": {},
    "about": {}
  },
  {
    "title": "TVPalm Ecolodge",
    "stars": "4,7",
    "num_reviews": "10",
    "category": "UNKNOWN",
    "address": "Khuổi My, Giang 1, tỉnh Tuyên Quang 310000, Việt Nam",
    "latitude": 22.8220263,
    "longitude": 104.92535,
    "opening_time": [],
    "contact_url": "http://tvpalm.com/",
    "phone": "+84 366 885 955",
    "reviews": [],
    "busy_data": {},
    "about": {}
  },
  {
    "title": "PHẠM GIA HOTEL",
    "stars": "4,4",
    "num_reviews": "59",
    "category": "UNKNOWN",
    "address": "153 Trần Hưng Đạo, P. Nguyễn Trãi, Hà Giang, 310000, Việt Nam",
    "latitude": 22.8297589,
    "longitude": 104.9822152,
    "opening_time": [],
    "contact_url": "https://www.facebook.com/KhachsanPhamGia",
    "phone": "UNKNOWN",
    "reviews": [],
    "busy_data": {},
    "about": {}
  },
  {
    "title": "Như Ý Hotel Hà Giang",
    "stars": "4,7",
    "num_reviews": "20",
    "category": "UNKNOWN",
    "address": "Số 91 đường hoàng hữu chuyên, cầu mè, Hà Giang, 310000, Việt Nam",
    "latitude": 22.8019004,
    "longitude": 104.9789921,
    "opening_time": [],
    "contact_url": "UNKNOWN",
    "phone": "+84 974 872 266",
    "reviews": [],
    "busy_data": {},
    "about": {}
  },
  {
    "title": "Khách Sạn Nhật Bảo",
    "stars": "4,2",
    "num_reviews": "195",
    "category": "UNKNOWN",
    "address": "05 Đ. Lê Quý Đôn, P. Nguyễn Trãi, Hà Giang, 20000, Việt Nam",
    "latitude": 22.8259827,
    "longitude": 104.9833613,
    "opening_time": [],
    "contact_url": "https://www.facebook.com/Nh%E1%BA%ADt-B%E1%BA%A3o-Hotel-H%C3%A0-Giang-113260336696174/",
    "phone": "+84 945 270 999",
    "reviews": [],
    "busy_data": {},
    "about": {}
  },
  {
    "title": "Lotus Premium Lodge",
    "stars": "4,4",
    "num_reviews": "8",
    "category": "UNKNOWN",
    "address": "239 Nguyễn Văn Linh, P. Quang Trung, Hà Giang, 310000, Việt Nam",
    "latitude": 22.8413527,
    "longitude": 104.9796805,
    "opening_time": [],
    "contact_url": "https://lotushagiang.com/",
    "phone": "+84 965 481 678",
    "reviews": [],
    "busy_data": {},
    "about": {}
  },
  {
    "title": "Khách sạn Tam Giác Mạch",
    "stars": "3,9",
    "num_reviews": "404",
    "category": "UNKNOWN",
    "address": "228 Lý Tự Trọng, P. Minh Khai, Hà Giang, Việt Nam",
    "latitude": 22.8283501,
    "longitude": 104.9899622,
    "opening_time": [],
    "contact_url": "https://business.google.com/create?fp=15798023716398559624&hl=vi&authuser=0&gmbsrc=-vi-et-ip-z-gmb-s-z-l~mrc%7Cclaimbz%7Cu&ppsrc=GMBMI&utm_campaign=-vi-et-ip-z-gmb-s-z-l~mrc%7Cclaimbz%7Cu&utm_source=gmb_mrc81&utm_medium=et&getstarted&lis=0",
    "phone": "+84 983 011 488",
    "reviews": [],
    "busy_data": {},
    "about": {}
  },
  {
    "title": "Sky Bay Lodge",
    "stars": "4,6",
    "num_reviews": "116",
    "category": "UNKNOWN",
    "address": "Thôn Tiến Thắng, Phương Thiện, Hà Giang, 20000, Việt Nam",
    "latitude": 22.7767047,
    "longitude": 104.9692188,
    "opening_time": [],
    "contact_url": "UNKNOWN",
    "phone": "+84 842 248 668",
    "reviews": [],
    "busy_data": {},
    "about": {}
  },
  {
    "title": "Royal Hotel Ha Giang",
    "stars": "4,4",
    "num_reviews": "143",
    "category": "UNKNOWN",
    "address": "91 Đ. Lê Quý Đôn, P. Nguyễn Trãi, Hà Giang, 310000, Việt Nam",
    "latitude": 22.8286111,
    "longitude": 104.9814825,
    "opening_time": [],
    "contact_url": "UNKNOWN",
    "phone": "+84 336 422 333",
    "reviews": [],
    "busy_data": {},
    "about": {}
  },
  {
    "title": "Anio Ha Giang Hotel",
    "stars": "4,8",
    "num_reviews": "105",
    "category": "UNKNOWN",
    "address": "Đại đội Cảnh sát cơ động, Đường mùng/283 Ba Tháng Hai, Ngọc Hà, Hà Giang, Việt Nam",
    "latitude": 22.8448792,
    "longitude": 105.0101126,
    "opening_time": [],
    "contact_url": "UNKNOWN",
    "phone": "+84 989 846 297",
    "reviews": [],
    "busy_data": {},
    "about": {}
  },
  {
    "title": "Nậm Lỳ Retreat",
    "stars": "4,8",
    "num_reviews": "72",
    "category": "UNKNOWN",
    "address": "Bản Luốc, Hoàng Su Phì, Hà Giang, Việt Nam",
    "latitude": 22.6953416,
    "longitude": 104.6682831,
    "opening_time": [],
    "contact_url": "https://namlyretreat.vn/",
    "phone": "+84 971 180 607",
    "reviews": [],
    "busy_data": {},
    "about": {}
  },
  {
    "title": "Nhà nghỉ Bích Phương 3 Motel",
    "stars": "4,3",
    "num_reviews": "UNKNOWN",
    "category": "UNKNOWN",
    "address": "Cầu Mè, Hà Giang, Việt Nam",
    "latitude": 22.8019177,
    "longitude": 104.9788498,
    "opening_time": [],
    "contact_url": "UNKNOWN",
    "phone": "+84 376 939 123",
    "reviews": [],
    "busy_data": {},
    "about": {}
  },
  {
    "title": "Hoang Kim Ha Giang hotel",
    "stars": "4,7",
    "num_reviews": "666",
    "category": "UNKNOWN",
    "address": "Số 33 Lê Trần Mãn (đường sau bến xe, Tp. Hà Giang, Hà Giang, Việt Nam",
    "latitude": 22.8020683,
    "longitude": 104.9767773,
    "opening_time": [],
    "contact_url": "UNKNOWN",
    "phone": "+84 827 971 993",
    "reviews": [],
    "busy_data": {},
    "about": {}
  },
  {
    "title": "Khách Sạn Đinh Gia Hà Giang",
    "stars": "4,1",
    "num_reviews": "334",
    "category": "UNKNOWN",
    "address": "RX2J+9J8, QL2, Phương Thiện, Vị Xuyên, Hà Giang, Việt Nam",
    "latitude": 22.8009222,
    "longitude": 104.9815775,
    "opening_time": [],
    "contact_url": "https://dinhgiahotel.com/",
    "phone": "+84 965 525 086",
    "reviews": [],
    "busy_data": {},
    "about": {}
  },
  {
    "title": "HG Hostel & Motorbikes",
    "stars": "4,8",
    "num_reviews": "1.872",
    "category": "UNKNOWN",
    "address": "Đội 2 thôn, Lâm Đồng, Phương Thiện, Tp. Hà Giang, Hà Giang 310000, Việt Nam",
    "latitude": 22.8057551,
    "longitude": 104.9754435,
    "opening_time": [],
    "contact_url": "UNKNOWN",
    "phone": "+84 327 258 338",
    "reviews": [],
    "busy_data": {},
    "about": {}
  },
  {
    "title": "Sun Hà Giang Hotel.tours.motorbike rental",
    "stars": "4,8",
    "num_reviews": "195",
    "category": "UNKNOWN",
    "address": "31 Nguyễn Văn Cừ, P. Minh Khai, Hà Giang, Việt Nam",
    "latitude": 22.824869,
    "longitude": 104.9865625,
    "opening_time": [],
    "contact_url": "http://mrhungvietnamtourism.com/",
    "phone": "+84 363 818 008",
    "reviews": [],
    "busy_data": {},
    "about": {}
  },
  {
    "title": "Homestay field ( bungalow & tour & motorbikes rantal ) )",
    "stars": "4,6",
    "num_reviews": "150",
    "category": "UNKNOWN",
    "address": "Bản Mè - Phương Thiện, Phương Thiện, Hà Giang, 311138, Việt Nam",
    "latitude": 22.798425,
    "longitude": 104.9730426,
    "opening_time": [],
    "contact_url": "UNKNOWN",
    "phone": "+84 349 211 618",
    "reviews": [],
    "busy_data": {},
    "about": {}
  },
  {
    "title": "Ha Giang Ali Hostel",
    "stars": "4,7",
    "num_reviews": "16",
    "category": "UNKNOWN",
    "address": "Hà Giang Ali Hostel, Hạ Thành - Bản Lúp, Phương Thiện, Hà Giang, 310000, Việt Nam",
    "latitude": 22.8151531,
    "longitude": 104.9625897,
    "opening_time": [],
    "contact_url": "https://hagiangalihostel.com/",
    "phone": "+84 964 430 801",
    "reviews": [],
    "busy_data": {},
    "about": {}
  },
  {
    "title": "Royal Hotel Ha Giang",
    "stars": "4,4",
    "num_reviews": "143",
    "category": "UNKNOWN",
    "address": "91 Đ. Lê Quý Đôn, P. Nguyễn Trãi, Hà Giang, 310000, Việt Nam",
    "latitude": 22.8286111,
    "longitude": 104.9814825,
    "opening_time": [],
    "contact_url": "UNKNOWN",
    "phone": "+84 336 422 333",
    "reviews": [],
    "busy_data": {},
    "about": {}
  },
  {
    "title": "Hà Giang City Hostel",
    "stars": "5,0",
    "num_reviews": "140",
    "category": "UNKNOWN",
    "address": "thôn Lâm Đồng, Phương Thiện, Hà Giang, 20000, Việt Nam",
    "latitude": 22.8055197,
    "longitude": 104.9759792,
    "opening_time": [],
    "contact_url": "https://hagiangcityhostel.com/",
    "phone": "+84 945 496 996",
    "reviews": [],
    "busy_data": {},
    "about": {}
  },
  {
    "title": "JU MÔNG HOSTEL",
    "stars": "5,0",
    "num_reviews": "174",
    "category": "UNKNOWN",
    "address": "73b Nguyễn Thái Học, P. Minh Khai, Hà Giang, Việt Nam",
    "latitude": 22.8218252,
    "longitude": 104.9850033,
    "opening_time": [],
    "contact_url": "UNKNOWN",
    "phone": "+84 814 078 666",
    "reviews": [],
    "busy_data": {},
    "about": {}
  },
  {
    "title": "Anio Ha Giang Hotel",
    "stars": "4,8",
    "num_reviews": "105",
    "category": "UNKNOWN",
    "address": "Đại đội Cảnh sát cơ động, Đường mùng/283 Ba Tháng Hai, Ngọc Hà, Hà Giang, Việt Nam",
    "latitude": 22.8448792,
    "longitude": 105.0101126,
    "opening_time": [],
    "contact_url": "UNKNOWN",
    "phone": "+84 989 846 297",
    "reviews": [],
    "busy_data": {},
    "about": {}
  },
  {
    "title": "Nậm Lỳ Retreat",
    "stars": "4,8",
    "num_reviews": "72",
    "category": "UNKNOWN",
    "address": "Bản Luốc, Hoàng Su Phì, Hà Giang, Việt Nam",
    "latitude": 22.6953416,
    "longitude": 104.6682831,
    "opening_time": [],
    "contact_url": "https://namlyretreat.vn/",
    "phone": "+84 971 180 607",
    "reviews": [],
    "busy_data": {},
    "about": {}
  },
  {
    "title": "Top Of The Loop Hostel Ha Giang",
    "stars": "4,9",
    "num_reviews": "500",
    "category": "UNKNOWN",
    "address": "Tòa Nhà Tuấn Sơn, Hai Bà Trưng, P. Nguyễn Trãi, Hà Giang, 310000, Việt Nam",
    "latitude": 22.8189084,
    "longitude": 104.9796456,
    "opening_time": [],
    "contact_url": "https://www.thebananatreehostel.com/bananatreehagiang",
    "phone": "+84 969 983 058",
    "reviews": [],
    "busy_data": {},
    "about": {}
  },
  {
    "title": "ZingHome Ha Giang Loop Tour",
    "stars": "5,0",
    "num_reviews": "UNKNOWN",
    "category": "UNKNOWN",
    "address": "Le Tran Man, 56 commune, Cau Me village, Hà Giang, 310000, Việt Nam",
    "latitude": 22.8007095,
    "longitude": 104.9766782,
    "opening_time": [],
    "contact_url": "https://zinghomehagiang.com/",
    "phone": "+84 813 682 323",
    "reviews": [],
    "busy_data": {},
    "about": {}
  },
  {
    "title": "Nhà nghỉ Bích Phương 3 Motel",
    "stars": "4,3",
    "num_reviews": "UNKNOWN",
    "category": "UNKNOWN",
    "address": "Cầu Mè, Hà Giang, Việt Nam",
    "latitude": 22.8019177,
    "longitude": 104.9788498,
    "opening_time": [],
    "contact_url": "UNKNOWN",
    "phone": "+84 376 939 123",
    "reviews": [],
    "busy_data": {},
    "about": {}
  },
  {
    "title": "Fincha Ecolodge",
    "stars": "5,0",
    "num_reviews": "UNKNOWN",
    "category": "UNKNOWN",
    "address": "Nậm Hồng, Hoàng Su Phì, Hà Giang 314210, Việt Nam",
    "latitude": 22.5666557,
    "longitude": 104.7213628,
    "opening_time": [],
    "contact_url": "UNKNOWN",
    "phone": "+84 936 085 369",
    "reviews": [],
    "busy_data": {},
    "about": {}
  },
  {
    "title": "Hoang Kim Ha Giang hotel",
    "stars": "4,7",
    "num_reviews": "666",
    "category": "UNKNOWN",
    "address": "Số 33 Lê Trần Mãn (đường sau bến xe, Tp. Hà Giang, Hà Giang, Việt Nam",
    "latitude": 22.8020683,
    "longitude": 104.9767773,
    "opening_time": [],
    "contact_url": "UNKNOWN",
    "phone": "+84 827 971 993",
    "reviews": [],
    "busy_data": {},
    "about": {}
  },
  {
    "title": "Anans Ecolodge | Tours & Motorbikes Rental",
    "stars": "4,9",
    "num_reviews": "1.677",
    "category": "UNKNOWN",
    "address": "Đại Lộ Hữu Nghị QL2, Thôn Lúp, Hà Giang, 20112, Việt Nam",
    "latitude": 22.8188217,
    "longitude": 104.9580655,
    "opening_time": [],
    "contact_url": "http://www.ananstravel.com/",
    "phone": "+84 929 919 797",
    "reviews": [],
    "busy_data": {},
    "about": {}
  },
  {
    "title": "Vila Cao Nguyên 2",
    "stars": "4,9",
    "num_reviews": "UNKNOWN",
    "category": "UNKNOWN",
    "address": "310a 20 Tháng 8, P. Nguyễn Trãi, Hà Giang, Việt Nam",
    "latitude": 22.8226646,
    "longitude": 104.9647241,
    "opening_time": [],
    "contact_url": "UNKNOWN",
    "phone": "+84 888 213 993",
    "reviews": [],
    "busy_data": {},
    "about": {}
  },
  {
    "title": "Khách Sạn Đinh Gia Hà Giang",
    "stars": "4,1",
    "num_reviews": "334",
    "category": "UNKNOWN",
    "address": "RX2J+9J8, QL2, Phương Thiện, Vị Xuyên, Hà Giang, Việt Nam",
    "latitude": 22.8009222,
    "longitude": 104.9815775,
    "opening_time": [],
    "contact_url": "https://dinhgiahotel.com/",
    "phone": "+84 965 525 086",
    "reviews": [],
    "busy_data": {},
    "about": {}
  },
  {
    "title": "Nho Hotel Ha Giang - by Bay Luxury",
    "stars": "1,6",
    "num_reviews": "15",
    "category": "UNKNOWN",
    "address": "2 Hải Thượng Lãng Ông, P. Minh Khai, Hà Giang, 310000, Việt Nam",
    "latitude": 22.8223492,
    "longitude": 104.9860886,
    "opening_time": [],
    "contact_url": "https://business.google.com/create?fp=5625331602208855926&hl=vi&authuser=0&gmbsrc=-vi-et-ip-z-gmb-s-z-l~mrc%7Cclaimbz%7Cu&ppsrc=GMBMI&utm_campaign=-vi-et-ip-z-gmb-s-z-l~mrc%7Cclaimbz%7Cu&utm_source=gmb_mrc81&utm_medium=et&getstarted&lis=0",
    "phone": "+84 968 683 468",
    "reviews": [],
    "busy_data": {},
    "about": {}
  },
  {
    "title": "Ngân Hà travel Hà Giang",
    "stars": "4,8",
    "num_reviews": "79",
    "category": "UNKNOWN",
    "address": "113c Lý Tự Trọng, P. Minh Khai, Hà Giang, 310000, Việt Nam",
    "latitude": 22.8233983,
    "longitude": 104.9897051,
    "opening_time": [],
    "contact_url": "UNKNOWN",
    "phone": "+84 219 6548 488",
    "reviews": [],
    "busy_data": {},
    "about": {}
  },
  {
    "title": "Hà Giang 1 Hostel and Tour",
    "stars": "4,9",
    "num_reviews": "1.144",
    "category": "UNKNOWN",
    "address": "54a Đ. Trần Phú, street, Hà Giang, Việt Nam",
    "latitude": 22.8198041,
    "longitude": 104.9871656,
    "opening_time": [],
    "contact_url": "http://motorbiketourshagiang1hostel.com/",
    "phone": "+84 366 166 968",
    "reviews": [],
    "busy_data": {},
    "about": {}
  },
  {
    "title": "HG Hostel & Motorbikes",
    "stars": "4,8",
    "num_reviews": "1.872",
    "category": "UNKNOWN",
    "address": "Đội 2 thôn, Lâm Đồng, Phương Thiện, Tp. Hà Giang, Hà Giang 310000, Việt Nam",
    "latitude": 22.8057551,
    "longitude": 104.9754435,
    "opening_time": [],
    "contact_url": "UNKNOWN",
    "phone": "+84 327 258 338",
    "reviews": [],
    "busy_data": {},
    "about": {}
  },
  {
    "title": "TOM'S HOUSE HOSTEL & MOTORBIKES",
    "stars": "4,9",
    "num_reviews": "500",
    "category": "UNKNOWN",
    "address": "ngõ 212 tổ 15, P. Minh Khai, Hà Giang, 20000, Việt Nam",
    "latitude": 22.8151378,
    "longitude": 104.9830093,
    "opening_time": [],
    "contact_url": "https://www.facebook.com/autumn.wind.359",
    "phone": "+84 384 457 972",
    "reviews": [],
    "busy_data": {},
    "about": {}
  },
  {
    "title": "Seven Homestay",
    "stars": "4,3",
    "num_reviews": "UNKNOWN",
    "category": "UNKNOWN",
    "address": "5 Đường Hà Sơn, P. Nguyễn Trãi, Hà Giang, Việt Nam",
    "latitude": 22.809917,
    "longitude": 104.9771655,
    "opening_time": [],
    "contact_url": "UNKNOWN",
    "phone": "+84 773 777 787",
    "reviews": [],
    "busy_data": {},
    "about": {}
  },
  {
    "title": "Loop Central Stay Tour & Motorbike Rental",
    "stars": "4,9",
    "num_reviews": "UNKNOWN",
    "category": "UNKNOWN",
    "address": "67A Nguyễn Văn Cừ, P. Minh Khai, Hà Giang, Việt Nam",
    "latitude": 22.8265351,
    "longitude": 104.9866826,
    "opening_time": [],
    "contact_url": "https://loopcentralstay.com/",
    "phone": "+84 363 288 558",
    "reviews": [],
    "busy_data": {},
    "about": {}
  },
  {
    "title": "Homestay field ( bungalow & tour & motorbikes rantal ) )",
    "stars": "4,6",
    "num_reviews": "150",
    "category": "UNKNOWN",
    "address": "Bản Mè - Phương Thiện, Phương Thiện, Hà Giang, 311138, Việt Nam",
    "latitude": 22.798425,
    "longitude": 104.9730426,
    "opening_time": [],
    "contact_url": "UNKNOWN",
    "phone": "+84 349 211 618",
    "reviews": [],
    "busy_data": {},
    "about": {}
  },
  {
    "title": "MAPI Adventures - Loop Tour and Homestay",
    "stars": "5,0",
    "num_reviews": "UNKNOWN",
    "category": "UNKNOWN",
    "address": "210A Nguyễn Văn Linh, P. Quang Trung, Hà Giang, 310000, Việt Nam",
    "latitude": 22.8437348,
    "longitude": 104.9817384,
    "opening_time": [],
    "contact_url": "https://hagianglooptourmapi.com/https://mapiadventures.com/",
    "phone": "+84 971 519 528",
    "reviews": [],
    "busy_data": {},
    "about": {}
  },
  {
    "title": "HomeStay Yến Linh",
    "stars": "5,0",
    "num_reviews": "UNKNOWN",
    "category": "UNKNOWN",
    "address": "58 Phan Huy Chú, P. Minh Khai, Hà Giang, Việt Nam",
    "latitude": 22.8185161,
    "longitude": 104.9845239,
    "opening_time": [],
    "contact_url": "https://www.booking.com/hotel/vn/yen-linh-homestay.vi.html",
    "phone": "+84 359 939 282",
    "reviews": [],
    "busy_data": {},
    "about": {}
  },
  {
    "title": "Ha Giang Ali Hostel",
    "stars": "4,7",
    "num_reviews": "16",
    "category": "UNKNOWN",
    "address": "Hà Giang Ali Hostel, Hạ Thành - Bản Lúp, Phương Thiện, Hà Giang, 310000, Việt Nam",
    "latitude": 22.8151531,
    "longitude": 104.9625897,
    "opening_time": [],
    "contact_url": "https://hagiangalihostel.com/",
    "phone": "+84 964 430 801",
    "reviews": [],
    "busy_data": {},
    "about": {}
  },
  {
    "title": "Homestay Trúc Sơn",
    "stars": "5,0",
    "num_reviews": "UNKNOWN",
    "category": "UNKNOWN",
    "address": "Thôn trúc sơn, Quản Bạ, Hà Giang, Việt Nam",
    "latitude": 23.0368242,
    "longitude": 105.0056358,
    "opening_time": [],
    "contact_url": "UNKNOWN",
    "phone": "+84 389 088 203",
    "reviews": [],
    "busy_data": {},
    "about": {}
  },
  {
    "title": "Four Points by Sheraton Ha Giang",
    "stars": "4,8",
    "num_reviews": "UNKNOWN",
    "category": "UNKNOWN",
    "address": "Cluster 12, Ha Giang 2 Ward, Tuyen Quang Province, Hà Giang, 310000, Việt Nam",
    "latitude": 22.8337655,
    "longitude": 104.9890712,
    "opening_time": [],
    "contact_url": "https://www.marriott.com/en-us/hotels/hanhp-four-points-ha-giang/overview/?scid=f2ae0541-1279-4f24-b197-a979c79310b0",
    "phone": "+84 219 3846 666",
    "reviews": [],
    "busy_data": {},
    "about": {}
  },
  {
    "title": "NHÀ NGHỈ LŨNG HỒ, Lung Ho motel & homestay",
    "stars": "4,5",
    "num_reviews": "6",
    "category": "UNKNOWN",
    "address": "Lũng Hồ, Yên Minh, Hà Giang, Việt Nam",
    "latitude": 22.9872829,
    "longitude": 105.2383026,
    "opening_time": [],
    "contact_url": "UNKNOWN",
    "phone": "+84 974 839 347",
    "reviews": [],
    "busy_data": {},
    "about": {}
  },
  {
    "title": "Tom's Du Gia Homestay",
    "stars": "4,5",
    "num_reviews": "113",
    "category": "UNKNOWN",
    "address": "Xóm, Cốc Pảng, Yên Minh, Hà Giang 20000, Việt Nam",
    "latitude": 22.9304882,
    "longitude": 105.2169411,
    "opening_time": [],
    "contact_url": "UNKNOWN",
    "phone": "+84 985 106 697",
    "reviews": [],
    "busy_data": {},
    "about": {}
  },
  {
    "title": "Strawberry Ha Giang Loop Tour, Motorbike Rental & Rooms",
    "stars": "4,9",
    "num_reviews": "311",
    "category": "UNKNOWN",
    "address": "209 đường 20/8, P. Nguyễn Trãi, Hà Giang, 310000, Việt Nam",
    "latitude": 22.8261999,
    "longitude": 104.9755796,
    "opening_time": [],
    "contact_url": "https://strawberryhagiangloop.com/",
    "phone": "+84 838 285 888",
    "reviews": [],
    "busy_data": {},
    "about": {}
  },
  {
    "title": "Lila Inn & Tours | Ha Giang Loop with Small Group",
    "stars": "4,9",
    "num_reviews": "43",
    "category": "UNKNOWN",
    "address": "08 Mai Hắc Đế, P. Nguyễn Trãi, Hà Giang, Việt Nam",
    "latitude": 22.8141747,
    "longitude": 104.9796582,
    "opening_time": [],
    "contact_url": "https://lilainn.tours/",
    "phone": "+84 968 321 715",
    "reviews": [],
    "busy_data": {},
    "about": {}
  },
  {
    "title": "RAW Ha Giang Loop Tour, Hostel & Motorbikes Rental",
    "stars": "5,0",
    "num_reviews": "UNKNOWN",
    "category": "UNKNOWN",
    "address": "83 Nguyễn Trãi, P. Nguyễn Trãi, Hà Giang, 310000, Việt Nam",
    "latitude": 22.8119653,
    "longitude": 104.9796073,
    "opening_time": [],
    "contact_url": "https://www.rawhagiangloop.com/",
    "phone": "+84 862 296 529",
    "reviews": [],
    "busy_data": {},
    "about": {}
  },
  {
    "title": "Peak Home Ha giang - Hostel & Motobike Tour",
    "stars": "4,9",
    "num_reviews": "UNKNOWN",
    "category": "UNKNOWN",
    "address": "65E Nguyễn Thái Học, P. Minh Khai, Hà Giang, 310000, Việt Nam",
    "latitude": 22.8213872,
    "longitude": 104.9848113,
    "opening_time": [],
    "contact_url": "http://peakhomehagiang.com/",
    "phone": "+84 971 955 396",
    "reviews": [],
    "busy_data": {},
    "about": {}
  },
  {
    "title": "Du Gia Lô Lô Homestay",
    "stars": "4,7",
    "num_reviews": "29",
    "category": "UNKNOWN",
    "address": "TL176, Du Già, Yên Minh, Hà Giang 20318, Việt Nam",
    "latitude": 22.9291906,
    "longitude": 105.224637,
    "opening_time": [],
    "contact_url": "UNKNOWN",
    "phone": "+84 866 229 129",
    "reviews": [],
    "busy_data": {},
    "about": {}
  },
  {
    "title": "Lazy Cat Homestay",
    "stars": "4,8",
    "num_reviews": "UNKNOWN",
    "category": "UNKNOWN",
    "address": "320B Lý Tự Trọng, P. Trần Phú, Hà Giang, 310000, Việt Nam",
    "latitude": 22.8320624,
    "longitude": 104.9912445,
    "opening_time": [],
    "contact_url": "https://lazycathagiangloop.com/",
    "phone": "+84 377 589 555",
    "reviews": [],
    "busy_data": {},
    "about": {}
  },
  {
    "title": "Khuổi My Homestay",
    "stars": "5,0",
    "num_reviews": "127",
    "category": "UNKNOWN",
    "address": "Thôn Khuổi My - Lùng Vài, Phương Độ, Hà Giang, 20000, Việt Nam",
    "latitude": 22.8214495,
    "longitude": 104.9173013,
    "opening_time": [],
    "contact_url": "https://www.facebook.com/share/15urqaSTrH/?mibextid=wwXIfr",
    "phone": "+84 967 391 555",
    "reviews": [],
    "busy_data": {},
    "about": {}
  },
  {
    "title": "Coffee 75 and Motel 75",
    "stars": "4,9",
    "num_reviews": "666",
    "category": "UNKNOWN",
    "address": "75 QL2, Phương Thiện, Hà Giang, 310000, Việt Nam",
    "latitude": 22.8015965,
    "longitude": 104.9795235,
    "opening_time": [
      [
        "Thứ Sáu",
        "07:30–23:00"
      ]
    ],
    "contact_url": "https://www.booking.com/hotel/vn/75-motel-ha-giang.vi.html?aid=304142&label=gen173nr-10CAEoggI46AdIM1gEaPQBiAEBmAEzuAEHyAEN2AED6AEB-AEBiAIBqAIBuAL7mpLJBsACAdICJDM4Y2I5OTRhLWU5NDItNDFmOC05NzhlLWI1MTJiZjI5YjY5ZdgCAeACAQ&sid=1e6478a905dc217725b6b7ff8e5ad48c&checkin=2025-11-24&checkout=2025-11-25&dest_id=8524042&dest_type=hotel&dist=0&group_adults=2&group_children=0&hapos=1&hpos=1&no_rooms=1&req_adults=2&req_children=0&room1=A,A&sb_price_type=total&soh=1&sr_order=popularity&srepoch=1764003271&srpvid=21e6493d3059f735df67ad9d80f1a0df&type=total&ucfs=1&#no_availability_msg",
    "phone": "+84 988 518 447",
    "reviews": [],
    "busy_data": {},
    "about": {}
  },
  {
    "title": "Trip - Tours & Hostel",
    "stars": "4,9",
    "num_reviews": "187",
    "category": "UNKNOWN",
    "address": "Đường Nguyễn Viết Ninh, tổ 7, Hà Giang, 310000, Việt Nam",
    "latitude": 22.8447636,
    "longitude": 105.0039778,
    "opening_time": [],
    "contact_url": "http://triphagiang.com/",
    "phone": "+84 359 323 323",
    "reviews": [],
    "busy_data": {},
    "about": {}
  },
  {
    "title": "Cắm Trại Đồi Gió - Wind Hilll Camping",
    "stars": "5,0",
    "num_reviews": "127",
    "category": "UNKNOWN",
    "address": "Lùng Càng, Hà Giang, 31000, Việt Nam",
    "latitude": 22.8657372,
    "longitude": 104.9501088,
    "opening_time": [],
    "contact_url": "UNKNOWN",
    "phone": "+84 946 863 779",
    "reviews": [],
    "busy_data": {},
    "about": {}
  },
  {
    "title": "Du Già Ngọc Homestay",
    "stars": "4,9",
    "num_reviews": "UNKNOWN",
    "category": "UNKNOWN",
    "address": "thôn TL176, Cốc Pảng, Yên Minh, Hà Giang, Việt Nam",
    "latitude": 22.9325172,
    "longitude": 105.2256621,
    "opening_time": [],
    "contact_url": "UNKNOWN",
    "phone": "+84 979 592 045",
    "reviews": [],
    "busy_data": {},
    "about": {}
  },
  {
    "title": "Nghĩa bản liền Homestay",
    "stars": "5,0",
    "num_reviews": "UNKNOWN",
    "category": "UNKNOWN",
    "address": "GC7J+H4, Bản Liền, Bắc Hà, Lào Cai, Việt Nam",
    "latitude": 22.5139603,
    "longitude": 104.4303546,
    "opening_time": [],
    "contact_url": "https://business.google.com/create?fp=11972753944477191208&hl=vi&authuser=0&gmbsrc=-vi-et-ip-z-gmb-s-z-l~mrc%7Cclaimbz%7Cu&ppsrc=GMBMI&utm_campaign=-vi-et-ip-z-gmb-s-z-l~mrc%7Cclaimbz%7Cu&utm_source=gmb_mrc81&utm_medium=et&getstarted&lis=0",
    "phone": "+84 969 412 902",
    "reviews": [],
    "busy_data": {},
    "about": {}
  },
  {
    "title": "Ha Giang Odyssey Hostel, Tours & Motorbikes Rental",
    "stars": "5,0",
    "num_reviews": "162",
    "category": "UNKNOWN",
    "address": "Ngõ 29, tổ 18, phường Nguyễn Trãi, TP Hà Giang Lane 29, Nguyen Trai Ward, Ha Giang City, Hà Giang, 310000, Việt Nam",
    "latitude": 22.805793,
    "longitude": 104.9779149,
    "opening_time": [],
    "contact_url": "http://odysseyhagiangloop.com/",
    "phone": "+84 357 292 323",
    "reviews": [],
    "busy_data": {},
    "about": {}
  },
  {
    "title": "De La Mont Hotel",
    "stars": "5,0",
    "num_reviews": "UNKNOWN",
    "category": "UNKNOWN",
    "address": "426 Nguyễn Trãi, P. Nguyễn Trãi, Hà Giang, Việt Nam",
    "latitude": 22.8260291,
    "longitude": 104.9840421,
    "opening_time": [],
    "contact_url": "http://delamonthotel.com/",
    "phone": "+84 888 316 668",
    "reviews": [],
    "busy_data": {},
    "about": {}
  },
  {
    "title": "An Châng Retreat & Spa",
    "stars": "4,8",
    "num_reviews": "UNKNOWN",
    "category": "UNKNOWN",
    "address": "Thôn Châng, Hà Giang, 20100, Việt Nam",
    "latitude": 22.7886848,
    "longitude": 104.9672227,
    "opening_time": [],
    "contact_url": "https://anchangretreat.vn/",
    "phone": "+84 946 956 636",
    "reviews": [],
    "busy_data": {},
    "about": {}
  },
  {
    "title": "Ha Giang Ecolodge",
    "stars": "4,9",
    "num_reviews": "UNKNOWN",
    "category": "UNKNOWN",
    "address": "Phương Độ, Tp. Hà Giang, Hà Giang, Việt Nam",
    "latitude": 22.8494094,
    "longitude": 104.9320072,
    "opening_time": [],
    "contact_url": "UNKNOWN",
    "phone": "+84 855 880 022",
    "reviews": [],
    "busy_data": {},
    "about": {}
  },
  {
    "title": "Huongthao 2 hotel( motorbike for rent )",
    "stars": "4,1",
    "num_reviews": "36",
    "category": "UNKNOWN",
    "address": "350 Lý Tự Trọng, P. Trần Phú, Hà Giang, 310000, Việt Nam",
    "latitude": 22.833509,
    "longitude": 104.991713,
    "opening_time": [],
    "contact_url": "UNKNOWN",
    "phone": "+84 976 125 152",
    "reviews": [],
    "busy_data": {},
    "about": {}
  },
  {
    "title": "Cao Bành Homestay",
    "stars": "5,0",
    "num_reviews": "UNKNOWN",
    "category": "UNKNOWN",
    "address": "Thôn cao bành, Phương Thiện, Hà Giang, 310000, Việt Nam",
    "latitude": 22.7899134,
    "longitude": 104.9476068,
    "opening_time": [],
    "contact_url": "https://www.facebook.com/profile.php?id=100052012328658&mibextid=LQQJ4d",
    "phone": "+84 352 521 322",
    "reviews": [],
    "busy_data": {},
    "about": {}
  },
  {
    "title": "Be’s Home",
    "stars": "5,0",
    "num_reviews": "79",
    "category": "UNKNOWN",
    "address": "16 Lê Hồng Phong, P. Minh Khai, Hà Giang, Việt Nam",
    "latitude": 22.8253875,
    "longitude": 104.9894688,
    "opening_time": [],
    "contact_url": "UNKNOWN",
    "phone": "+84 913 219 550",
    "reviews": [],
    "busy_data": {},
    "about": {}
  },
  {
    "title": "Đá Gió Hà Giang homestay",
    "stars": "4,8",
    "num_reviews": "UNKNOWN",
    "category": "UNKNOWN",
    "address": "Phương Thiện, Hà Giang, Việt Nam",
    "latitude": 22.8007257,
    "longitude": 104.9828645,
    "opening_time": [],
    "contact_url": "https://linhlingmototwolftours.com/",
    "phone": "+84 979 511 625",
    "reviews": [],
    "busy_data": {},
    "about": {}
  },
  {
    "title": "Cozy Hostel",
    "stars": "5,0",
    "num_reviews": "UNKNOWN",
    "category": "UNKNOWN",
    "address": "Thôn Lúp, Tp. Hà Giang, Hà Giang 21000, Việt Nam",
    "latitude": 22.8174373,
    "longitude": 104.9591644,
    "opening_time": [],
    "contact_url": "https://hagiangamazingtours.com/",
    "phone": "+84 813 639 936",
    "reviews": [],
    "busy_data": {},
    "about": {}
  },
  {
    "title": "Bikki’s Jungle Homestay & Tea house",
    "stars": "5,0",
    "num_reviews": "UNKNOWN",
    "category": "UNKNOWN",
    "address": "Lùng Tao, Vị Xuyên, Hà Giang 310000, Việt Nam",
    "latitude": 22.7670658,
    "longitude": 104.8598696,
    "opening_time": [],
    "contact_url": "https://bikkishouse.wixsite.com/website",
    "phone": "+84 969 154 721",
    "reviews": [],
    "busy_data": {},
    "about": {}
  },
  {
    "title": "Ha Giang Historic House",
    "stars": "4,8",
    "num_reviews": "656",
    "category": "UNKNOWN",
    "address": "209 Minh Khai, P. Minh Khai, Hà Giang, 310000, Việt Nam",
    "latitude": 22.8147737,
    "longitude": 104.9895965,
    "opening_time": [],
    "contact_url": "https://hagianghistorichouse.com/",
    "phone": "+84 974 087 988",
    "reviews": [],
    "busy_data": {},
    "about": {}
  },
  {
    "title": "SunFlower House - Ha Giang Loop",
    "stars": "5,0",
    "num_reviews": "UNKNOWN",
    "category": "UNKNOWN",
    "address": "Ngõ 467 Nguyễn Văn Linh, Tổ 8, Hà Giang, Việt Nam",
    "latitude": 22.846674,
    "longitude": 105.006441,
    "opening_time": [],
    "contact_url": "https://sunflowerhagiang.com.vn/",
    "phone": "+84 844 895 333",
    "reviews": [],
    "busy_data": {},
    "about": {}
  },
  {
    "title": "Cloudy Hostel & Toursit",
    "stars": "4,9",
    "num_reviews": "UNKNOWN",
    "category": "UNKNOWN",
    "address": "102 Đường Phùng Hưng, P. Trần Phú, Hà Giang, 310000, Việt Nam",
    "latitude": 22.8371004,
    "longitude": 104.9814748,
    "opening_time": [],
    "contact_url": "http://cloudyhostelhagiang.com/",
    "phone": "+84 888 165 599",
    "reviews": [],
    "busy_data": {},
    "about": {}
  },
  {
    "title": "Ban Bang Ecolodge Tours & Motorbike Rental",
    "stars": "5,0",
    "num_reviews": "116",
    "category": "UNKNOWN",
    "address": "Km 12 Ban Bang, Đạo Đức, Vị Xuyên, Hà Giang 310000, Việt Nam",
    "latitude": 22.7373096,
    "longitude": 104.9834792,
    "opening_time": [],
    "contact_url": "https://banbangecolodge.com/",
    "phone": "+84 339 800 368",
    "reviews": [],
    "busy_data": {},
    "about": {}
  },
  {
    "title": "Little Tay Homestay",
    "stars": "5,0",
    "num_reviews": "UNKNOWN",
    "category": "UNKNOWN",
    "address": "Phương Thiện, Hà Giang, Việt Nam",
    "latitude": 22.7986766,
    "longitude": 104.9719205,
    "opening_time": [],
    "contact_url": "UNKNOWN",
    "phone": "+84 868 298 802",
    "reviews": [],
    "busy_data": {},
    "about": {}
  },
  {
    "title": "Panhou Retreat",
    "stars": "4,6",
    "num_reviews": "UNKNOWN",
    "category": "UNKNOWN",
    "address": "Làng Giang, Hoàng Su Phì, Hà Giang 314210, Việt Nam",
    "latitude": 22.5763293,
    "longitude": 104.7448583,
    "opening_time": [],
    "contact_url": "https://www.panhouretreat.com/",
    "phone": "+84 966 615 050",
    "reviews": [],
    "busy_data": {},
    "about": {}
  },
  {
    "title": "Villa Xiav",
    "stars": "5,0",
    "num_reviews": "UNKNOWN",
    "category": "UNKNOWN",
    "address": "city, QL4C, Thuận Hoà, Vị Xuyên, Hà Giang 20213, Việt Nam",
    "latitude": 22.8702342,
    "longitude": 105.0079143,
    "opening_time": [],
    "contact_url": "UNKNOWN",
    "phone": "+84 866 653 768",
    "reviews": [],
    "busy_data": {},
    "about": {}
  },
  {
    "title": "VIET HUNG Hostel & motorbikes rental tour - Bus tichket",
    "stars": "5,0",
    "num_reviews": "752",
    "category": "UNKNOWN",
    "address": "76 QL2, Phương Thiện, Hà Giang, Việt Nam",
    "latitude": 22.8056501,
    "longitude": 104.9759005,
    "opening_time": [],
    "contact_url": "http://viethunghostel.vn/",
    "phone": "+84 398 823 535",
    "reviews": [],
    "busy_data": {},
    "about": {}
  },
  {
    "title": "Yolo Ha Giang House and Loop Tours",
    "stars": "5,0",
    "num_reviews": "UNKNOWN",
    "category": "UNKNOWN",
    "address": "39D Cau Me, QL2, Hà Giang, 310000, Việt Nam",
    "latitude": 22.8004464,
    "longitude": 104.9819234,
    "opening_time": [],
    "contact_url": "https://yolohagiang.com/",
    "phone": "+84 865 838 216",
    "reviews": [],
    "busy_data": {},
    "about": {}
  },
  {
    "title": "Nhà Nghỉ Bảo Ngọc",
    "stars": "4,3",
    "num_reviews": "UNKNOWN",
    "category": "UNKNOWN",
    "address": "20/4 Lê Hoàn, Tổ Dân Phố Số 2, Hà Giang, Việt Nam",
    "latitude": 22.8259502,
    "longitude": 104.9702002,
    "opening_time": [],
    "contact_url": "https://business.google.com/create?fp=12244301455631555988&hl=vi&authuser=0&gmbsrc=-vi-et-ip-z-gmb-s-z-l~mrc%7Cclaimbz%7Cu&ppsrc=GMBMI&utm_campaign=-vi-et-ip-z-gmb-s-z-l~mrc%7Cclaimbz%7Cu&utm_source=gmb_mrc81&utm_medium=et&getstarted&lis=0",
    "phone": "+84 326 692 483",
    "reviews": [],
    "busy_data": {},
    "about": {}
  },
  {
    "title": "Mường Trà Garden Homestay",
    "stars": "4,7",
    "num_reviews": "6",
    "category": "UNKNOWN",
    "address": "Đường số TL 176, Lang Các, Cốc Pảng, Yên Minh, Hà Giang 310000, Việt Nam",
    "latitude": 22.9327273,
    "longitude": 105.2249362,
    "opening_time": [],
    "contact_url": "UNKNOWN",
    "phone": "+84 332 279 898",
    "reviews": [],
    "busy_data": {},
    "about": {}
  },
  {
    "title": "Local Ha Giang Loop Tours, Hotel & Rentals",
    "stars": "5,0",
    "num_reviews": "500",
    "category": "UNKNOWN",
    "address": "city, 92Q Nguyễn Trãi, St, Hà Giang, 310000, Việt Nam",
    "latitude": 22.8102762,
    "longitude": 104.9791846,
    "opening_time": [],
    "contact_url": "http://www.localhagiangtours.com/",
    "phone": "+84 387 540 762",
    "reviews": [],
    "busy_data": {},
    "about": {}
  },
  {
    "title": "Du Già Field View Homestay",
    "stars": "4,6",
    "num_reviews": "137",
    "category": "UNKNOWN",
    "address": "Đ. Cốc Pảng, Làng Cac, Hà Giang, 31000, Việt Nam",
    "latitude": 22.9272971,
    "longitude": 105.2275927,
    "opening_time": [],
    "contact_url": "https://www.booking.com/Share-4tZnGF",
    "phone": "+84 358 696 603",
    "reviews": [],
    "busy_data": {},
    "about": {}
  },
  {
    "title": "Homestay người nùng",
    "stars": "4,2",
    "num_reviews": "UNKNOWN",
    "category": "UNKNOWN",
    "address": "197, Thôn đông rìu, Tuyên Quang, Việt Nam",
    "latitude": 22.7512508,
    "longitude": 104.6858095,
    "opening_time": [],
    "contact_url": "UNKNOWN",
    "phone": "+84 988 711 929",
    "reviews": [],
    "busy_data": {},
    "about": {}
  },
  {
    "title": "Moc May by NorthStar Hostel",
    "stars": "4,4",
    "num_reviews": "55",
    "category": "UNKNOWN",
    "address": "122 Đ. Lý Thường Kiệt, Ngọc Hà, Hà Giang, 310000, Việt Nam",
    "latitude": 22.8372357,
    "longitude": 104.9929653,
    "opening_time": [],
    "contact_url": "http://www.northstartourhg.com/",
    "phone": "+84 349 601 868",
    "reviews": [],
    "busy_data": {},
    "about": {}
  },
  {
    "title": "Ha Giang Loop Hostel",
    "stars": "4,6",
    "num_reviews": "105",
    "category": "UNKNOWN",
    "address": "ngõ 30 đường 3/2, Ngọc Hà, Hà Giang, 310000, Việt Nam",
    "latitude": 22.8437853,
    "longitude": 105.0102675,
    "opening_time": [],
    "contact_url": "http://hagiangloophostel.com/",
    "phone": "+84 944 686 366",
    "reviews": [],
    "busy_data": {},
    "about": {}
  },
  {
    "title": "Ta Phin Ho Resort",
    "stars": "4,5",
    "num_reviews": "UNKNOWN",
    "category": "UNKNOWN",
    "address": "Tả Phìn Hồ, Hoàng Su Phì, Hà Giang, Việt Nam",
    "latitude": 22.5963552,
    "longitude": 104.7961587,
    "opening_time": [],
    "contact_url": "http://taphinho.vn/",
    "phone": "+84 977 985 020",
    "reviews": [],
    "busy_data": {},
    "about": {}
  },
  {
    "title": "Bình Minh Homestay",
    "stars": "4,6",
    "num_reviews": "217",
    "category": "UNKNOWN",
    "address": "Thông Nguyên, Hoàng Su Phì, Hà Giang, Việt Nam",
    "latitude": 22.562213,
    "longitude": 104.7246754,
    "opening_time": [],
    "contact_url": "http://binhminhhomestay.com/",
    "phone": "+84 945 057 970",
    "reviews": [],
    "busy_data": {},
    "about": {}
  },
  {
    "title": "Dìn’s home",
    "stars": "5,0",
    "num_reviews": "UNKNOWN",
    "category": "UNKNOWN",
    "address": "P. Quang Trung, Hà Giang, Việt Nam",
    "latitude": 22.8354627,
    "longitude": 104.9780174,
    "opening_time": [],
    "contact_url": "UNKNOWN",
    "phone": "+84 386 053 220",
    "reviews": [],
    "busy_data": {},
    "about": {}
  },
  {
    "title": "Homestay Van Doan",
    "stars": "4,3",
    "num_reviews": "127",
    "category": "UNKNOWN",
    "address": "RWVP+5GP, Phương Độ, Hà Giang, Việt Nam",
    "latitude": 22.842953,
    "longitude": 104.9363245,
    "opening_time": [],
    "contact_url": "https://business.google.com/create?fp=3766225019354471804&hl=vi&authuser=0&gmbsrc=-vi-et-ip-z-gmb-s-z-l~mrc%7Cclaimbz%7Cu&ppsrc=GMBMI&utm_campaign=-vi-et-ip-z-gmb-s-z-l~mrc%7Cclaimbz%7Cu&utm_source=gmb_mrc81&utm_medium=et&getstarted&lis=0",
    "phone": "+84 365 022 754",
    "reviews": [],
    "busy_data": {},
    "about": {}
  },
  {
    "title": "Rabbit Hostel – Ha Giang Loop Tours & Motorbike Rental",
    "stars": "4,9",
    "num_reviews": "UNKNOWN",
    "category": "UNKNOWN",
    "address": "Đường Hà Sơn, P. Nguyễn Trãi, Hà Giang, 310000, Việt Nam",
    "latitude": 22.8097116,
    "longitude": 104.9781021,
    "opening_time": [],
    "contact_url": "https://hagiangloopdiscoverytour.com/#tour",
    "phone": "+84 334 638 282",
    "reviews": [],
    "busy_data": {},
    "about": {}
  },
  {
    "title": "Mr: Win Homestay",
    "stars": "5,0",
    "num_reviews": "UNKNOWN",
    "category": "UNKNOWN",
    "address": "km5, thôn tha, Tp. Hà Giang, Hà Giang, Việt Nam",
    "latitude": 22.8339239,
    "longitude": 104.9482193,
    "opening_time": [],
    "contact_url": "UNKNOWN",
    "phone": "+84 364 866 766",
    "reviews": [],
    "busy_data": {},
    "about": {}
  },
  {
    "title": "Cát Lý Camping",
    "stars": "4,6",
    "num_reviews": "UNKNOWN",
    "category": "UNKNOWN",
    "address": "Thuận Hoà, Vị Xuyên, Hà Giang, Việt Nam",
    "latitude": 22.9070737,
    "longitude": 104.9986083,
    "opening_time": [],
    "contact_url": "https://www.booking.com/Pulse-0X2hTj",
    "phone": "+84 974 484 291",
    "reviews": [],
    "busy_data": {},
    "about": {}
  },
  {
    "title": "Hằng Thường Hostel",
    "stars": "4,6",
    "num_reviews": "404",
    "category": "UNKNOWN",
    "address": "15b Phạm Hồng Thái, P. Minh Khai, Hà Giang, Việt Nam",
    "latitude": 22.8240362,
    "longitude": 104.9895697,
    "opening_time": [],
    "contact_url": "https://business.google.com/create?fp=9392080808560200186&hl=vi&authuser=0&gmbsrc=-vi-et-ip-z-gmb-s-z-l~mrc%7Cclaimbz%7Cu&ppsrc=GMBMI&utm_campaign=-vi-et-ip-z-gmb-s-z-l~mrc%7Cclaimbz%7Cu&utm_source=gmb_mrc81&utm_medium=et&getstarted&lis=0",
    "phone": "+84 836 399 888",
    "reviews": [],
    "busy_data": {},
    "about": {}
  },
  {
    "title": "Liam’ Homestay",
    "stars": "4,6",
    "num_reviews": "UNKNOWN",
    "category": "UNKNOWN",
    "address": "Ng. 279, P. Minh Khai, Hà Giang, 310000, Việt Nam",
    "latitude": 22.8274953,
    "longitude": 104.9873003,
    "opening_time": [],
    "contact_url": "UNKNOWN",
    "phone": "+84 852 656 222",
    "reviews": [],
    "busy_data": {},
    "about": {}
  },
  {
    "title": "Đường Thượng Eco House",
    "stars": "5,0",
    "num_reviews": "UNKNOWN",
    "category": "UNKNOWN",
    "address": "X5G8+9RX, Đường Thượng, Yên Minh, Hà Giang, Việt Nam",
    "latitude": 22.9759712,
    "longitude": 105.1682957,
    "opening_time": [],
    "contact_url": "https://business.google.com/create?fp=15189389851284528020&hl=vi&authuser=0&gmbsrc=-vi-et-ip-z-gmb-s-z-l~mrc%7Cclaimbz%7Cu&ppsrc=GMBMI&utm_campaign=-vi-et-ip-z-gmb-s-z-l~mrc%7Cclaimbz%7Cu&utm_source=gmb_mrc81&utm_medium=et&getstarted&lis=0",
    "phone": "UNKNOWN",
    "reviews": [],
    "busy_data": {},
    "about": {}
  },
  {
    "title": "Trà My Lúa Vàng Bản Luốc",
    "stars": "4,9",
    "num_reviews": "143",
    "category": "UNKNOWN",
    "address": "Suôi Thầu, Hoàng Su Phì, Hà Giang, Việt Nam",
    "latitude": 22.6895527,
    "longitude": 104.6650402,
    "opening_time": [],
    "contact_url": "UNKNOWN",
    "phone": "+84 867 687 899",
    "reviews": [],
    "busy_data": {},
    "about": {}
  },
  {
    "title": "MÓNG NGỰA HOMESTAY _ Hoàng Su Phì",
    "stars": "4,9",
    "num_reviews": "217",
    "category": "UNKNOWN",
    "address": "Thông Nguyên, Hoàng Su Phì, Hà Giang, Việt Nam",
    "latitude": 22.5625864,
    "longitude": 104.7271333,
    "opening_time": [],
    "contact_url": "http://mongnguahomestay.com/",
    "phone": "+84 344 272 972",
    "reviews": [],
    "busy_data": {},
    "about": {}
  },
  {
    "title": "Bông Ha Giang Hostel",
    "stars": "4,9",
    "num_reviews": "199",
    "category": "UNKNOWN",
    "address": "59a Nguyễn Thái Học, Street, Hà Giang, 310000, Việt Nam",
    "latitude": 22.8212431,
    "longitude": 104.9846399,
    "opening_time": [],
    "contact_url": "https://www.bongbackpackerhostel.com/",
    "phone": "+84 888 526 606",
    "reviews": [],
    "busy_data": {},
    "about": {}
  },
  {
    "title": "Khu nghỉ dưỡng P'apiu",
    "stars": "4,8",
    "num_reviews": "UNKNOWN",
    "category": "UNKNOWN",
    "address": "Km18, Yên Dịnh, Bắc Mê, Hà Giang 20000, Việt Nam",
    "latitude": 22.8129627,
    "longitude": 105.1085246,
    "opening_time": [],
    "contact_url": "https://www.booking.com/hotel/vn/p-39-apiu-resort.html?aid=7955654",
    "phone": "+84 219 3841 999",
    "reviews": [],
    "busy_data": {},
    "about": {}
  }
]