[
  {
    "title": "Bikki's jungle homestay - Double Room",
    "stars": "5.0",
    "num_reviews": "UNKNOWN",
    "category": "UNKNOWN",
    "address": "UNKNOWN",
    "latitude": 22.76721,
    "longitude": 104.8599319,
    "opening_time": [],
    "contact_url": "https://www.bluepillow.com/search/65ca0f3a671b07d23c6c73ca?dest=bkng&cat=House&lat=22.76721&lng=104.85993&language=en",
    "phone": "UNKNOWN",
    "reviews": [],
    "busy_data": {
      "days": {}
    },
    "about": {}
  },
  {
    "title": "Ha Giang Faithien Homestay - Double Room with Mountain View",
    "stars": "5.0",
    "num_reviews": "UNKNOWN",
    "category": "UNKNOWN",
    "address": "Hà Giang, Vietnam",
    "latitude": 22.7869301,
    "longitude": 104.9662704,
    "opening_time": [],
    "contact_url": "https://www.bluepillow.com/search/5d364d9ae24da4139855ca0e?dest=bkng&cat=House&lat=22.78693&lng=104.96627&language=en",
    "phone": "UNKNOWN",
    "reviews": [],
    "busy_data": {
      "days": {}
    },
    "about": {}
  },
  {
    "title": "Trường Anh Homestay Hà Giang - Family Bungalow",
    "stars": "5.0",
    "num_reviews": "UNKNOWN",
    "category": "UNKNOWN",
    "address": "Hà Giang, Vietnam",
    "latitude": 22.83498,
    "longitude": 105.0187988,
    "opening_time": [],
    "contact_url": "https://www.bluepillow.com/search/64c8d3ada1247fa35c63d392?dest=bkng&cat=House&lat=22.83498&lng=105.0188&language=en",
    "phone": "UNKNOWN",
    "reviews": [],
    "busy_data": {
      "days": {}
    },
    "about": {}
  },
  {
    "title": "SIM Farmstay - Double Room with Pool View",
    "stars": "UNKNOWN",
    "num_reviews": "UNKNOWN",
    "category": "UNKNOWN",
    "address": "Hà Giang, Vietnam",
    "latitude": 22.7931709,
    "longitude": 104.9574966,
    "opening_time": [],
    "contact_url": "https://www.bluepillow.com/search/69497bce5c042e01bacc6962?dest=bkng&cat=House&lat=22.79317&lng=104.9575&language=en",
    "phone": "UNKNOWN",
    "reviews": [],
    "busy_data": {
      "days": {}
    },
    "about": {}
  },
  {
    "title": "Ha Giang Eco Bungalow",
    "stars": "UNKNOWN",
    "num_reviews": "UNKNOWN",
    "category": "UNKNOWN",
    "address": "Hà Giang, Vietnam",
    "latitude": 22.8099003,
    "longitude": 104.9684601,
    "opening_time": [],
    "contact_url": "https://www.bluepillow.com/search/67a23948905c444f2d05421b?dest=ago&cat=Vacation+rental+%28other%29&lat=22.8099&lng=104.96846&language=en",
    "phone": "UNKNOWN",
    "reviews": [],
    "busy_data": {
      "days": {}
    },
    "about": {}
  },
  {
    "title": "Thavill Retreat Hagiang",
    "stars": "UNKNOWN",
    "num_reviews": "UNKNOWN",
    "category": "UNKNOWN",
    "address": "Hà Giang, Vietnam",
    "latitude": 22.8355637,
    "longitude": 104.9488068,
    "opening_time": [],
    "contact_url": "https://www.agoda.com/thavill-retreat-hagiang/hotel/ha-giang-vn.html",
    "phone": "UNKNOWN",
    "reviews": [],
    "busy_data": {
      "days": {}
    },
    "about": {}
  },
  {
    "title": "Mr Win homestay - Deluxe Bungalow with Garden View",
    "stars": "UNKNOWN",
    "num_reviews": "UNKNOWN",
    "category": "UNKNOWN",
    "address": "Hà Giang, Vietnam",
    "latitude": 22.8339901,
    "longitude": 104.9483414,
    "opening_time": [],
    "contact_url": "https://www.bluepillow.com/search/662646ed4338d48a8fc90504?dest=bkng&cat=House&lat=22.83399&lng=104.94834&language=en",
    "phone": "UNKNOWN",
    "reviews": [],
    "busy_data": {
      "days": {}
    },
    "about": {}
  },
  {
    "title": "Thavill Retreat Hagiang - Deluxe Double Room",
    "stars": "5.0",
    "num_reviews": "UNKNOWN",
    "category": "UNKNOWN",
    "address": "Hà Giang, Vietnam",
    "latitude": 22.8355198,
    "longitude": 104.9487915,
    "opening_time": [],
    "contact_url": "UNKNOWN",
    "phone": "UNKNOWN",
    "reviews": [],
    "busy_data": {
      "days": {}
    },
    "about": {}
  },
  {
    "title": "Ha Giang Xanh Retreat - Trekking, Tour, Motorbike Rental - Double Room with Garden View",
    "stars": "5.0",
    "num_reviews": "UNKNOWN",
    "category": "UNKNOWN",
    "address": "Hà Giang, Vietnam",
    "latitude": 22.83741,
    "longitude": 104.9653931,
    "opening_time": [],
    "contact_url": "https://www.bluepillow.com/search/65c9cc04671b07d23c66f5c7?dest=bkng&cat=House&lat=22.83741&lng=104.96539&language=en",
    "phone": "UNKNOWN",
    "reviews": [],
    "busy_data": {
      "days": {}
    },
    "about": {}
  },
  {
    "title": "Ha Giang Uphill Coffee Farmstay - Family Bungalow",
    "stars": "UNKNOWN",
    "num_reviews": "UNKNOWN",
    "category": "UNKNOWN",
    "address": "Hà Giang, Vietnam",
    "latitude": 22.8324509,
    "longitude": 104.9478836,
    "opening_time": [],
    "contact_url": "https://www.bluepillow.com/search/695e91ecac408a6eb70b1bc4?dest=bkng&cat=House&lat=22.83245&lng=104.94788&language=en",
    "phone": "UNKNOWN",
    "reviews": [],
    "busy_data": {
      "days": {}
    },
    "about": {}
  },
  {
    "title": "HaGiang Go Ecolodge",
    "stars": "4.4",
    "num_reviews": "UNKNOWN",
    "category": "UNKNOWN",
    "address": "Hà Giang, Vietnam",
    "latitude": 22.7913208,
    "longitude": 104.992012,
    "opening_time": [],
    "contact_url": "https://deals.vio.com/?sig=73aca13c7f952d2641c156f3e69125e1eb497c325f122828ee5aa8797168b9a12d32303331333438363233&turl=https%3A%2F%2Fwww.vio.com%2FHotel%2FSearch%3FhotelId%3D133619524%26utm_source%3Dgha-vr%26utm_campaign%3Dstatic%26openHotelDetails%3D1",
    "phone": "UNKNOWN",
    "reviews": [],
    "busy_data": {
      "days": {}
    },
    "about": {}
  },
  {
    "title": "Lake House - Double Room",
    "stars": "5.0",
    "num_reviews": "UNKNOWN",
    "category": "UNKNOWN",
    "address": "Hà Giang, Vietnam",
    "latitude": 22.7875595,
    "longitude": 104.9755936,
    "opening_time": [],
    "contact_url": "UNKNOWN",
    "phone": "UNKNOWN",
    "reviews": [],
    "busy_data": {
      "days": {}
    },
    "about": {}
  },
  {
    "title": "Ha Giang Lai Homestay",
    "stars": "UNKNOWN",
    "num_reviews": "UNKNOWN",
    "category": "UNKNOWN",
    "address": "Hà Giang, Vietnam",
    "latitude": 22.7902908,
    "longitude": 104.9473419,
    "opening_time": [],
    "contact_url": "https://www.bluepillow.com/search/67a24323905c444f2d0c7428?dest=ago&cat=Vacation+rental+%28other%29&lat=22.79029&lng=104.94734&language=en",
    "phone": "UNKNOWN",
    "reviews": [],
    "busy_data": {
      "days": {}
    },
    "about": {}
  },
  {
    "title": "Shan Tea Homestay - Bed in 10-Bed Mixed Dormitory Room",
    "stars": "5.0",
    "num_reviews": "UNKNOWN",
    "category": "UNKNOWN",
    "address": "Hà Giang, Vietnam",
    "latitude": 22.8376694,
    "longitude": 104.9936829,
    "opening_time": [],
    "contact_url": "https://www.bluepillow.com/search/5d6c8b2ec162693e744a8637?dest=bkng&cat=House&lat=22.83767&lng=104.99368&language=en",
    "phone": "UNKNOWN",
    "reviews": [],
    "busy_data": {
      "days": {}
    },
    "about": {}
  },
  {
    "title": "Mr Win homestay",
    "stars": "UNKNOWN",
    "num_reviews": "UNKNOWN",
    "category": "UNKNOWN",
    "address": "Hà Giang, Vietnam",
    "latitude": 22.8339939,
    "longitude": 104.9483414,
    "opening_time": [],
    "contact_url": "https://www.booking.com/hotel/vn/mr-win-homestay.en.html?aid=2068758;label=seogooglelocal-link-imagesaow-hotel-11736318_grp-2_gendate-20240917;utm_source=seogooglelocal;utm_medium=description;utm_term=hotel-11736318;utm_campaign=en",
    "phone": "UNKNOWN",
    "reviews": [],
    "busy_data": {
      "days": {}
    },
    "about": {}
  },
  {
    "title": "Rosie Villa Ha Giang - Motorbikerental Tour - Double Room with Lake View",
    "stars": "5.0",
    "num_reviews": "UNKNOWN",
    "category": "UNKNOWN",
    "address": "Hà Giang, Vietnam",
    "latitude": 22.8365593,
    "longitude": 104.9820328,
    "opening_time": [],
    "contact_url": "https://www.bluepillow.com/search/5eb451d167a9d10d04245081?dest=bkng&cat=House&lat=22.83656&lng=104.98203&language=en",
    "phone": "UNKNOWN",
    "reviews": [],
    "busy_data": {
      "days": {}
    },
    "about": {}
  },
  {
    "title": "Linh Homestay and motorbikes rent",
    "stars": "4.4",
    "num_reviews": "UNKNOWN",
    "category": "UNKNOWN",
    "address": "Hà Giang, Vietnam",
    "latitude": 22.8045807,
    "longitude": 104.977478,
    "opening_time": [],
    "contact_url": "https://deals.vio.com/?sig=73aca13c7f952d2641c156f3e69125e1eb497c325f122828ee5aa8797168b9a12d32303331333438363233&turl=https%3A%2F%2Fwww.vio.com%2FHotel%2FSearch%3FhotelId%3D4536108%26utm_source%3Dgha-vr%26utm_campaign%3Dstatic%26openHotelDetails%3D1",
    "phone": "UNKNOWN",
    "reviews": [],
    "busy_data": {
      "days": {}
    },
    "about": {}
  },
  {
    "title": "Ha Giang Eco Bungalow - Large Double Room",
    "stars": "UNKNOWN",
    "num_reviews": "UNKNOWN",
    "category": "UNKNOWN",
    "address": "Hà Giang, Vietnam",
    "latitude": 22.8099098,
    "longitude": 104.9684601,
    "opening_time": [],
    "contact_url": "https://www.bluepillow.com/search/662647034338d48a8fc90ecf?dest=bkng&cat=House&lat=22.80991&lng=104.96846&language=en",
    "phone": "UNKNOWN",
    "reviews": [],
    "busy_data": {
      "days": {}
    },
    "about": {}
  },
  {
    "title": "Pi Noong Homestay",
    "stars": "UNKNOWN",
    "num_reviews": "UNKNOWN",
    "category": "UNKNOWN",
    "address": "Hà Giang, Vietnam",
    "latitude": 22.7910309,
    "longitude": 104.9693222,
    "opening_time": [],
    "contact_url": "UNKNOWN",
    "phone": "UNKNOWN",
    "reviews": [],
    "busy_data": {
      "days": {}
    },
    "about": {}
  },
  {
    "title": "An Châng Retreat & Spa",
    "stars": "4.7",
    "num_reviews": "UNKNOWN",
    "category": "UNKNOWN",
    "address": "Hà Giang, Vietnam",
    "latitude": 22.7887001,
    "longitude": 104.9672165,
    "opening_time": [],
    "contact_url": "UNKNOWN",
    "phone": "UNKNOWN",
    "reviews": [],
    "busy_data": {
      "days": {}
    },
    "about": {}
  },
  {
    "title": "Ngan Ha Homestay - Family Room with Balcony",
    "stars": "5.0",
    "num_reviews": "UNKNOWN",
    "category": "UNKNOWN",
    "address": "Hà Giang, Vietnam",
    "latitude": 22.8225307,
    "longitude": 104.9901199,
    "opening_time": [],
    "contact_url": "https://www.bluepillow.com/search/61eee34c113b0ba9fb93c6b4/254641809?dest=bkng&cat=House&lat=22.82253&lng=104.99012&language=en",
    "phone": "UNKNOWN",
    "reviews": [],
    "busy_data": {
      "days": {}
    },
    "about": {}
  },
  {
    "title": "Tay Farmhouse - Single Bed in Mixed Dormitory Room",
    "stars": "5.0",
    "num_reviews": "UNKNOWN",
    "category": "UNKNOWN",
    "address": "Hà Giang, Vietnam",
    "latitude": 22.7833195,
    "longitude": 104.9762573,
    "opening_time": [],
    "contact_url": "https://www.bluepillow.com/search/648622717f7e24c19231eca6?dest=bkng&cat=House&lat=22.78332&lng=104.97626&language=en",
    "phone": "UNKNOWN",
    "reviews": [],
    "busy_data": {
      "days": {}
    },
    "about": {}
  },
  {
    "title": "Pao's Leisure Homestay - Double or Twin Room with Garden View",
    "stars": "4.4",
    "num_reviews": "UNKNOWN",
    "category": "UNKNOWN",
    "address": "Hà Giang, Vietnam",
    "latitude": 22.8338509,
    "longitude": 104.9917297,
    "opening_time": [],
    "contact_url": "https://www.bluepillow.com/search/61ef0bb7113b0ba9fb94ce11?dest=bkng&cat=House&lat=22.83385&lng=104.99173&language=en",
    "phone": "UNKNOWN",
    "reviews": [],
    "busy_data": {
      "days": {}
    },
    "about": {}
  },
  {
    "title": "Hà Giang Safari",
    "stars": "UNKNOWN",
    "num_reviews": "UNKNOWN",
    "category": "UNKNOWN",
    "address": "Hà Giang, Vietnam",
    "latitude": 22.8188801,
    "longitude": 104.9854431,
    "opening_time": [],
    "contact_url": "https://www.bluepillow.com/search/62de8c8fde4e4eebed1558d3?dest=ago&cat=Vacation+rental+%28other%29&lat=22.81888&lng=104.98544&language=en",
    "phone": "UNKNOWN",
    "reviews": [],
    "busy_data": {
      "days": {}
    },
    "about": {}
  },
  {
    "title": "Homestay Quyền Linh-Tour Tây Côn Lĩnh - Double Room",
    "stars": "UNKNOWN",
    "num_reviews": "UNKNOWN",
    "category": "UNKNOWN",
    "address": "UNKNOWN",
    "latitude": 22.7647591,
    "longitude": 104.8598938,
    "opening_time": [],
    "contact_url": "https://www.bluepillow.com/search/6949a8415c042e01bacdfb34?dest=bkng&cat=House&lat=22.76476&lng=104.85989&language=en",
    "phone": "UNKNOWN",
    "reviews": [],
    "busy_data": {
      "days": {}
    },
    "about": {}
  },
  {
    "title": "palmhagiang",
    "stars": "UNKNOWN",
    "num_reviews": "UNKNOWN",
    "category": "UNKNOWN",
    "address": "Hà Giang, Vietnam",
    "latitude": 22.8251209,
    "longitude": 104.9013672,
    "opening_time": [],
    "contact_url": "https://www.bluepillow.com/search/639a1ac7df5d94a879fe2ae3?dest=ago&cat=Vacation+rental+%28other%29&lat=22.82512&lng=104.90137&language=en",
    "phone": "UNKNOWN",
    "reviews": [],
    "busy_data": {
      "days": {}
    },
    "about": {}
  },
  {
    "title": "75 MOTEL - Quadruple Room with Balcony",
    "stars": "5.0",
    "num_reviews": "UNKNOWN",
    "category": "UNKNOWN",
    "address": "Hà Giang, Vietnam",
    "latitude": 22.8017597,
    "longitude": 104.9793777,
    "opening_time": [],
    "contact_url": "https://www.bluepillow.com/search/62df0ff8ba4544849389b546?dest=bkng&cat=House&lat=22.80176&lng=104.97938&language=en",
    "phone": "UNKNOWN",
    "reviews": [],
    "busy_data": {
      "days": {}
    },
    "about": {}
  },
  {
    "title": "TL Adventure TOUR MOTORBIKE - Deluxe Double Room",
    "stars": "5.0",
    "num_reviews": "UNKNOWN",
    "category": "UNKNOWN",
    "address": "Hà Giang, Vietnam",
    "latitude": 22.82201,
    "longitude": 104.985321,
    "opening_time": [],
    "contact_url": "https://www.bluepillow.com/search/648613427f7e24c1922eadab?dest=bkng&cat=Apartment&lat=22.82201&lng=104.98532&language=en",
    "phone": "UNKNOWN",
    "reviews": [],
    "busy_data": {
      "days": {}
    },
    "about": {}
  },
  {
    "title": "Strawberry Ha Giang Loop",
    "stars": "UNKNOWN",
    "num_reviews": "UNKNOWN",
    "category": "UNKNOWN",
    "address": "Hà Giang, Vietnam",
    "latitude": 22.8261604,
    "longitude": 104.9755096,
    "opening_time": [],
    "contact_url": "UNKNOWN",
    "phone": "UNKNOWN",
    "reviews": [],
    "busy_data": {
      "days": {}
    },
    "about": {}
  },
  {
    "title": "Wind's House Ha Giang - King Room with Garden View",
    "stars": "4.8",
    "num_reviews": "UNKNOWN",
    "category": "UNKNOWN",
    "address": "UNKNOWN",
    "latitude": 22.7805996,
    "longitude": 104.9927368,
    "opening_time": [],
    "contact_url": "https://www.bluepillow.com/search/654cb1653011da1e8b78ed2a?dest=bkng&cat=House&lat=22.7806&lng=104.99274&language=en",
    "phone": "UNKNOWN",
    "reviews": [],
    "busy_data": {
      "days": {}
    },
    "about": {}
  },
  {
    "title": "HGNI Valley - Thung Lũng Tự Do - Bed in 10-Bed Mixed Dormitory Room",
    "stars": "UNKNOWN",
    "num_reviews": "UNKNOWN",
    "category": "UNKNOWN",
    "address": "Phong Quang, Vietnam",
    "latitude": 22.8483505,
    "longitude": 104.9597702,
    "opening_time": [],
    "contact_url": "https://www.bluepillow.com/search/695e9a59ac408a6eb70bc792?dest=bkng&cat=House&lat=22.84835&lng=104.95977&language=en",
    "phone": "UNKNOWN",
    "reviews": [],
    "busy_data": {
      "days": {}
    },
    "about": {}
  },
  {
    "title": "Plateau Homestay - Tours Motorbikes Rental",
    "stars": "UNKNOWN",
    "num_reviews": "UNKNOWN",
    "category": "UNKNOWN",
    "address": "Hà Giang, Vietnam",
    "latitude": 22.7975502,
    "longitude": 104.9771423,
    "opening_time": [],
    "contact_url": "https://www.bluepillow.com/search/67a23fa7905c444f2d092901?dest=ago&cat=Vacation+rental+%28other%29&lat=22.79755&lng=104.97714&language=en",
    "phone": "UNKNOWN",
    "reviews": [],
    "busy_data": {
      "days": {}
    },
    "about": {}
  },
  {
    "title": "Expeditions home - Double Room with Garden View",
    "stars": "UNKNOWN",
    "num_reviews": "UNKNOWN",
    "category": "UNKNOWN",
    "address": "Hà Giang, Vietnam",
    "latitude": 22.8251896,
    "longitude": 104.9270477,
    "opening_time": [],
    "contact_url": "https://www.bluepillow.com/search/6949a8175c042e01bacdf567?dest=bkng&cat=House&lat=22.82519&lng=104.92705&language=en",
    "phone": "UNKNOWN",
    "reviews": [],
    "busy_data": {
      "days": {}
    },
    "about": {}
  },
  {
    "title": "Nhớ Homestay offers unique tours and luxurious, comfortable rooms with WiFi, AC",
    "stars": "UNKNOWN",
    "num_reviews": "UNKNOWN",
    "category": "UNKNOWN",
    "address": "Hà Giang, Vietnam",
    "latitude": 22.8212204,
    "longitude": 104.9828796,
    "opening_time": [],
    "contact_url": "https://www.bluepillow.com/search/67a4c2c8064d51dcdc93c35f?dest=bpex&cat=House&lat=22.82122&lng=104.98288&language=en",
    "phone": "UNKNOWN",
    "reviews": [],
    "busy_data": {
      "days": {}
    },
    "about": {}
  },
  {
    "title": "rosie home stay hà giang",
    "stars": "UNKNOWN",
    "num_reviews": "UNKNOWN",
    "category": "UNKNOWN",
    "address": "Hà Giang, Vietnam",
    "latitude": 22.8388309,
    "longitude": 104.9798508,
    "opening_time": [],
    "contact_url": "https://www.bluepillow.com/search/67a23fba905c444f2d093c8b?dest=ago&cat=Vacation+rental+%28other%29&lat=22.83883&lng=104.97985&language=en",
    "phone": "UNKNOWN",
    "reviews": [],
    "busy_data": {
      "days": {}
    },
    "about": {}
  },
  {
    "title": "Homestay A Sính nhà sàn phòng đơn",
    "stars": "UNKNOWN",
    "num_reviews": "UNKNOWN",
    "category": "UNKNOWN",
    "address": "Hà Giang, Vietnam",
    "latitude": 22.8028202,
    "longitude": 104.9782333,
    "opening_time": [],
    "contact_url": "https://www.bluepillow.com/search/65e2339b93553be8f5582d89?dest=ago&cat=Vacation+rental+%28other%29&lat=22.80282&lng=104.97823&language=en",
    "phone": "UNKNOWN",
    "reviews": [],
    "busy_data": {
      "days": {}
    },
    "about": {}
  },
  {
    "title": "An's Home Ha Giang",
    "stars": "UNKNOWN",
    "num_reviews": "UNKNOWN",
    "category": "UNKNOWN",
    "address": "Hà Giang, Vietnam",
    "latitude": 22.8187904,
    "longitude": 104.9580688,
    "opening_time": [],
    "contact_url": "https://www.bluepillow.com/search/67a23e7e905c444f2d0830bd?dest=ago&cat=Vacation+rental+%28other%29&lat=22.81879&lng=104.95807&language=en",
    "phone": "UNKNOWN",
    "reviews": [],
    "busy_data": {
      "days": {}
    },
    "about": {}
  },
  {
    "title": "I am a local guide,so i can provide the information tour in my province for you",
    "stars": "UNKNOWN",
    "num_reviews": "UNKNOWN",
    "category": "UNKNOWN",
    "address": "Hà Giang, Vietnam",
    "latitude": 22.8002396,
    "longitude": 104.97789,
    "opening_time": [],
    "contact_url": "https://www.bluepillow.com/search/623393184c4d8d9b9b79b7bd?dest=bpex&cat=House&lat=22.80024&lng=104.97789&language=en",
    "phone": "UNKNOWN",
    "reviews": [],
    "busy_data": {
      "days": {}
    },
    "about": {}
  },
  {
    "title": "Our house is also your house,",
    "stars": "UNKNOWN",
    "num_reviews": "UNKNOWN",
    "category": "UNKNOWN",
    "address": "Hà Giang, Vietnam",
    "latitude": 22.8267002,
    "longitude": 104.9759064,
    "opening_time": [],
    "contact_url": "https://www.bluepillow.com/search/65e232ba93553be8f557c648?dest=ago&cat=Vacation+rental+%28other%29&lat=22.8267&lng=104.97591&language=en",
    "phone": "UNKNOWN",
    "reviews": [],
    "busy_data": {
      "days": {}
    },
    "about": {}
  },
  {
    "title": "2A Travel-Homestay - Budget Twin Room",
    "stars": "3.8",
    "num_reviews": "UNKNOWN",
    "category": "UNKNOWN",
    "address": "Hà Giang, Vietnam",
    "latitude": 22.8020496,
    "longitude": 104.9794312,
    "opening_time": [],
    "contact_url": "https://www.bluepillow.com/search/6486213c7f7e24c192315d70?dest=bkng&cat=House&lat=22.80205&lng=104.97943&language=en",
    "phone": "UNKNOWN",
    "reviews": [],
    "busy_data": {
      "days": {}
    },
    "about": {}
  },
  {
    "title": "Dragon' Home",
    "stars": "UNKNOWN",
    "num_reviews": "UNKNOWN",
    "category": "UNKNOWN",
    "address": "Hà Giang, Vietnam",
    "latitude": 22.8299904,
    "longitude": 105.0133514,
    "opening_time": [],
    "contact_url": "https://www.bluepillow.com/search/67a2434c905c444f2d0ca7d1?dest=ago&cat=Vacation+rental+%28other%29&lat=22.82999&lng=105.01335&language=en",
    "phone": "UNKNOWN",
    "reviews": [],
    "busy_data": {
      "days": {}
    },
    "about": {}
  },
  {
    "title": "Ha Giang Tours Hotel",
    "stars": "UNKNOWN",
    "num_reviews": "UNKNOWN",
    "category": "UNKNOWN",
    "address": "Hà Giang, Vietnam",
    "latitude": 22.8055096,
    "longitude": 104.9784698,
    "opening_time": [],
    "contact_url": "https://www.bluepillow.com/search/6551ffab1811a9820ebeccce?dest=ago&cat=Vacation+rental+%28other%29&lat=22.80551&lng=104.97847&language=en",
    "phone": "UNKNOWN",
    "reviews": [],
    "busy_data": {
      "days": {}
    },
    "about": {}
  },
  {
    "title": "Be's Home Tours - Bed in 8-Bed Mixed Dormitory Room",
    "stars": "5.0",
    "num_reviews": "UNKNOWN",
    "category": "UNKNOWN",
    "address": "Hà Giang, Vietnam",
    "latitude": 22.8253193,
    "longitude": 104.9891434,
    "opening_time": [],
    "contact_url": "https://www.bluepillow.com/search/62dee9d5ba454484938922b3?dest=bkng&cat=House&lat=22.82532&lng=104.98914&language=en",
    "phone": "UNKNOWN",
    "reviews": [],
    "busy_data": {
      "days": {}
    },
    "about": {}
  },
  {
    "title": "Maison Teahouse homestay",
    "stars": "4.7",
    "num_reviews": "UNKNOWN",
    "category": "UNKNOWN",
    "address": "Hà Giang, Vietnam",
    "latitude": 22.8274307,
    "longitude": 104.9535904,
    "opening_time": [],
    "contact_url": "https://www.bluepillow.com/search/62ded158171f1dbde29c1020?dest=ago&cat=Vacation+rental+%28other%29&lat=22.82743&lng=104.95359&language=en",
    "phone": "UNKNOWN",
    "reviews": [],
    "busy_data": {
      "days": {}
    },
    "about": {}
  },
  {
    "title": "Ban Tuy Homestay",
    "stars": "UNKNOWN",
    "num_reviews": "UNKNOWN",
    "category": "UNKNOWN",
    "address": "Hà Giang, Vietnam",
    "latitude": 22.8343487,
    "longitude": 105.0190353,
    "opening_time": [],
    "contact_url": "https://deals.vio.com/?sig=73aca13c7f952d2641c156f3e69125e1eb497c325f122828ee5aa8797168b9a12d32303331333438363233&turl=https%3A%2F%2Fwww.vio.com%2FHotel%2FSearch%3FhotelId%3D3436012%26utm_source%3Dgha-vr%26utm_campaign%3Dstatic%26openHotelDetails%3D1",
    "phone": "UNKNOWN",
    "reviews": [],
    "busy_data": {
      "days": {}
    },
    "about": {}
  },
  {
    "title": "Dong Que Homestay - Economy Double Room",
    "stars": "4.5",
    "num_reviews": "UNKNOWN",
    "category": "UNKNOWN",
    "address": "Hà Giang, Vietnam",
    "latitude": 22.8434906,
    "longitude": 104.9367065,
    "opening_time": [],
    "contact_url": "https://www.bluepillow.com/search/59438f3c7c00cb0e643779b0?dest=bkng&cat=House&lat=22.84349&lng=104.93671&language=en",
    "phone": "UNKNOWN",
    "reviews": [],
    "busy_data": {
      "days": {}
    },
    "about": {}
  },
  {
    "title": "Doi Thong Homestay",
    "stars": "UNKNOWN",
    "num_reviews": "UNKNOWN",
    "category": "UNKNOWN",
    "address": "Hà Giang, Vietnam",
    "latitude": 22.8222694,
    "longitude": 104.9721985,
    "opening_time": [],
    "contact_url": "https://www.bluepillow.com/search/67a23c98905c444f2d074d01?dest=ago&cat=Vacation+rental+%28other%29&lat=22.82227&lng=104.9722&language=en",
    "phone": "UNKNOWN",
    "reviews": [],
    "busy_data": {
      "days": {}
    },
    "about": {}
  },
  {
    "title": "Homestay Tay Con Linh tea - One-Bedroom Chalet",
    "stars": "UNKNOWN",
    "num_reviews": "UNKNOWN",
    "category": "UNKNOWN",
    "address": "UNKNOWN",
    "latitude": 22.7688503,
    "longitude": 104.8606796,
    "opening_time": [],
    "contact_url": "https://www.bluepillow.com/search/67a229c15a2dfa15b1812904?dest=bkng&cat=Villa&lat=22.76885&lng=104.86068&language=en",
    "phone": "UNKNOWN",
    "reviews": [],
    "busy_data": {
      "days": {}
    },
    "about": {}
  },
  {
    "title": "Homestay and Tây Côn Lĩnh Tea",
    "stars": "UNKNOWN",
    "num_reviews": "UNKNOWN",
    "category": "UNKNOWN",
    "address": "UNKNOWN",
    "latitude": 22.7687969,
    "longitude": 104.8607025,
    "opening_time": [],
    "contact_url": "https://www.booking.com/hotel/vn/homestay-and-tay-con-linh-tea.en.html?aid=2068758;label=seogooglelocal-link-imagesaow-hotel-12499060_grp-0_gendate-20240917;utm_source=seogooglelocal;utm_medium=description;utm_term=hotel-12499060;utm_campaign=en",
    "phone": "UNKNOWN",
    "reviews": [],
    "busy_data": {
      "days": {}
    },
    "about": {}
  },
  {
    "title": "Homestay Bui Ty Ha Giang - King Room with Lake View",
    "stars": "4.8",
    "num_reviews": "UNKNOWN",
    "category": "UNKNOWN",
    "address": "Hà Giang, Vietnam",
    "latitude": 22.7782307,
    "longitude": 104.9725266,
    "opening_time": [],
    "contact_url": "https://www.bluepillow.com/search/594390b47c00cb0e6438d856?dest=bkng&cat=House&lat=22.77823&lng=104.97253&language=en",
    "phone": "UNKNOWN",
    "reviews": [],
    "busy_data": {
      "days": {}
    },
    "about": {}
  },
  {
    "title": "In Homestay Cafe",
    "stars": "UNKNOWN",
    "num_reviews": "UNKNOWN",
    "category": "UNKNOWN",
    "address": "Hà Giang, Vietnam",
    "latitude": 22.8258591,
    "longitude": 104.9740982,
    "opening_time": [],
    "contact_url": "https://www.bluepillow.com/search/67a242c7905c444f2d0c44a5?dest=ago&cat=Vacation+rental+%28other%29&lat=22.82586&lng=104.9741&language=en",
    "phone": "UNKNOWN",
    "reviews": [],
    "busy_data": {
      "days": {}
    },
    "about": {}
  },
  {
    "title": "Infinity Ha Giang Loop - Homestay and Motorbike Rentals - Double Room with Private Bathroom",
    "stars": "5.0",
    "num_reviews": "UNKNOWN",
    "category": "UNKNOWN",
    "address": "Hà Giang, Vietnam",
    "latitude": 22.8257999,
    "longitude": 104.9889221,
    "opening_time": [],
    "contact_url": "https://www.bluepillow.com/search/648580a97f7e24c1922c5e9b?dest=bkng&cat=House&lat=22.8258&lng=104.98892&language=en",
    "phone": "UNKNOWN",
    "reviews": [],
    "busy_data": {
      "days": {}
    },
    "about": {}
  },
  {
    "title": "HomeStay Quân Huyền - One-Bedroom Chalet",
    "stars": "UNKNOWN",
    "num_reviews": "UNKNOWN",
    "category": "UNKNOWN",
    "address": "Hà Giang, Vietnam",
    "latitude": 22.8425694,
    "longitude": 104.9746323,
    "opening_time": [],
    "contact_url": "https://www.bluepillow.com/search/67a22a7a5a2dfa15b181599e?dest=bkng&cat=House&lat=22.84257&lng=104.97463&language=en",
    "phone": "UNKNOWN",
    "reviews": [],
    "busy_data": {
      "days": {}
    },
    "about": {}
  },
  {
    "title": "Ha Giang Vegetarian Homestay Restaurant",
    "stars": "UNKNOWN",
    "num_reviews": "UNKNOWN",
    "category": "UNKNOWN",
    "address": "Hà Giang, Vietnam",
    "latitude": 22.8242207,
    "longitude": 104.9856415,
    "opening_time": [],
    "contact_url": "https://www.bluepillow.com/search/67a24054905c444f2d09f411?dest=ago&cat=Vacation+rental+%28other%29&lat=22.82422&lng=104.98564&language=en",
    "phone": "UNKNOWN",
    "reviews": [],
    "busy_data": {
      "days": {}
    },
    "about": {}
  },
  {
    "title": "Wooden Double Room Ha Giang & Motorbike City Mini Loop Trekking",
    "stars": "UNKNOWN",
    "num_reviews": "UNKNOWN",
    "category": "UNKNOWN",
    "address": "Hà Giang, Vietnam",
    "latitude": 22.8369274,
    "longitude": 104.9770508,
    "opening_time": [],
    "contact_url": "UNKNOWN",
    "phone": "UNKNOWN",
    "reviews": [],
    "busy_data": {
      "days": {}
    },
    "about": {}
  },
  {
    "title": "Jungleman Homestay",
    "stars": "UNKNOWN",
    "num_reviews": "UNKNOWN",
    "category": "UNKNOWN",
    "address": "Hà Giang, Vietnam",
    "latitude": 22.8645992,
    "longitude": 105.0039978,
    "opening_time": [],
    "contact_url": "https://deals.vio.com/?sig=73aca13c7f952d2641c156f3e69125e1eb497c325f122828ee5aa8797168b9a12d32303331333438363233&turl=https%3A%2F%2Fwww.vio.com%2FHotel%2FSearch%3FhotelId%3D3436039%26utm_source%3Dgha-vr%26utm_campaign%3Dstatic%26openHotelDetails%3D1",
    "phone": "UNKNOWN",
    "reviews": [],
    "busy_data": {
      "days": {}
    },
    "about": {}
  },
  {
    "title": "Cay's Homestay",
    "stars": "UNKNOWN",
    "num_reviews": "UNKNOWN",
    "category": "UNKNOWN",
    "address": "Hà Giang, Vietnam",
    "latitude": 22.7999611,
    "longitude": 104.9843445,
    "opening_time": [],
    "contact_url": "https://deals.vio.com/?sig=73aca13c7f952d2641c156f3e69125e1eb497c325f122828ee5aa8797168b9a12d32303331333438363233&turl=https%3A%2F%2Fwww.vio.com%2FHotel%2FSearch%3FhotelId%3D3436172%26utm_source%3Dgha-vr%26utm_campaign%3Dstatic%26openHotelDetails%3D1",
    "phone": "UNKNOWN",
    "reviews": [],
    "busy_data": {
      "days": {}
    },
    "about": {}
  },
  {
    "title": "PAPA'S GARDEN - HOMESTAY HA GIANG (NATURE TOUCHES YOU)",
    "stars": "UNKNOWN",
    "num_reviews": "UNKNOWN",
    "category": "UNKNOWN",
    "address": "Hà Giang, Vietnam",
    "latitude": 22.8241596,
    "longitude": 104.9850845,
    "opening_time": [],
    "contact_url": "https://www.vrbo.com/pdp/lo/120264441?MDPCID=VRBO-META.HPA.WEB-ORGANIC.VR",
    "phone": "UNKNOWN",
    "reviews": [],
    "busy_data": {
      "days": {}
    },
    "about": {}
  },
  {
    "title": "Tinh Homestay",
    "stars": "UNKNOWN",
    "num_reviews": "UNKNOWN",
    "category": "UNKNOWN",
    "address": "Hà Giang, Vietnam",
    "latitude": 22.8430653,
    "longitude": 104.9350433,
    "opening_time": [],
    "contact_url": "https://deals.vio.com/?sig=73aca13c7f952d2641c156f3e69125e1eb497c325f122828ee5aa8797168b9a12d32303331333438363233&turl=https%3A%2F%2Fwww.vio.com%2FHotel%2FSearch%3FhotelId%3D4821518%26utm_source%3Dgha-vr%26utm_campaign%3Dstatic%26openHotelDetails%3D1",
    "phone": "UNKNOWN",
    "reviews": [],
    "busy_data": {
      "days": {}
    },
    "about": {}
  },
  {
    "title": "Ban Bang Ecolodge Tours & Motorbike Rental",
    "stars": "4.7",
    "num_reviews": "UNKNOWN",
    "category": "UNKNOWN",
    "address": "UNKNOWN",
    "latitude": 22.7373104,
    "longitude": 104.9834824,
    "opening_time": [],
    "contact_url": "https://deals.vio.com/?sig=73aca13c7f952d2641c156f3e69125e1eb497c325f122828ee5aa8797168b9a12d32303331333438363233&turl=https%3A%2F%2Fwww.vio.com%2FHotel%2FSearch%3FhotelId%3D117404115%26utm_source%3Dgha-vr%26utm_campaign%3Dstatic%26openHotelDetails%3D1",
    "phone": "UNKNOWN",
    "reviews": [],
    "busy_data": {
      "days": {}
    },
    "about": {}
  },
  {
    "title": "Palm Hill Chalet - Deluxe Bungalow with Garden View",
    "stars": "5.0",
    "num_reviews": "UNKNOWN",
    "category": "UNKNOWN",
    "address": "Hà Giang, Vietnam",
    "latitude": 22.8342991,
    "longitude": 105.0191269,
    "opening_time": [],
    "contact_url": "https://www.bluepillow.com/search/654cad5e3011da1e8b778c9b?dest=bkng&cat=House&lat=22.8343&lng=105.01913&language=en",
    "phone": "UNKNOWN",
    "reviews": [],
    "busy_data": {
      "days": {}
    },
    "about": {}
  },
  {
    "title": "Lake House",
    "stars": "UNKNOWN",
    "num_reviews": "UNKNOWN",
    "category": "UNKNOWN",
    "address": "Hà Giang, Vietnam",
    "latitude": 22.7872543,
    "longitude": 104.9751205,
    "opening_time": [],
    "contact_url": "https://www.booking.com/hotel/vn/lake-house-ha-giang.en.html?aid=2068758;label=seogooglelocal-link-imagesaow-hotel-10872759_grp-3_gendate-20240917;utm_source=seogooglelocal;utm_medium=description;utm_term=hotel-10872759;utm_campaign=en",
    "phone": "UNKNOWN",
    "reviews": [],
    "busy_data": {
      "days": {}
    },
    "about": {}
  },
  {
    "title": "Ngoc Son homestay",
    "stars": "5.0",
    "num_reviews": "UNKNOWN",
    "category": "UNKNOWN",
    "address": "Hà Giang, Vietnam",
    "latitude": 22.7976418,
    "longitude": 104.9772186,
    "opening_time": [],
    "contact_url": "UNKNOWN",
    "phone": "UNKNOWN",
    "reviews": [],
    "busy_data": {
      "days": {}
    },
    "about": {}
  },
  {
    "title": "Homestay Nhớ",
    "stars": "UNKNOWN",
    "num_reviews": "UNKNOWN",
    "category": "UNKNOWN",
    "address": "Hà Giang, Vietnam",
    "latitude": 22.8230095,
    "longitude": 104.9855576,
    "opening_time": [],
    "contact_url": "https://www.bluepillow.com/search/67a24097905c444f2d0a13f4?dest=ago&cat=Vacation+rental+%28other%29&lat=22.82301&lng=104.98556&language=en",
    "phone": "UNKNOWN",
    "reviews": [],
    "busy_data": {
      "days": {}
    },
    "about": {}
  },
  {
    "title": "Homestay Hải Phận - Double Room",
    "stars": "5.0",
    "num_reviews": "UNKNOWN",
    "category": "UNKNOWN",
    "address": "Hà Giang, Vietnam",
    "latitude": 22.8204193,
    "longitude": 104.9798431,
    "opening_time": [],
    "contact_url": "https://www.bluepillow.com/search/5f7363e9e24da41bb0ded84f?dest=bkng&cat=House&lat=22.82042&lng=104.97984&language=en",
    "phone": "UNKNOWN",
    "reviews": [],
    "busy_data": {
      "days": {}
    },
    "about": {}
  },
  {
    "title": "Ha Giang Tiamo Adventure",
    "stars": "UNKNOWN",
    "num_reviews": "UNKNOWN",
    "category": "UNKNOWN",
    "address": "Hà Giang, Vietnam",
    "latitude": 22.82131,
    "longitude": 104.9873505,
    "opening_time": [],
    "contact_url": "https://www.bluepillow.com/search/67a23c00905c444f2d06a8fe?dest=ago&cat=Vacation+rental+%28other%29&lat=22.82131&lng=104.98735&language=en",
    "phone": "UNKNOWN",
    "reviews": [],
    "busy_data": {
      "days": {}
    },
    "about": {}
  },
  {
    "title": "Hà Giang Xanh Retreat - Standard Triple Room, Multiple Beds, Non Smoking",
    "stars": "UNKNOWN",
    "num_reviews": "UNKNOWN",
    "category": "UNKNOWN",
    "address": "Quang Trung, Vietnam",
    "latitude": 22.8465004,
    "longitude": 104.9634705,
    "opening_time": [],
    "contact_url": "https://www.bluepillow.com/search/67d16d52a21d9499fe9cefbc?dest=nuit&cat=Bed+and+breakfast&lat=22.8465&lng=104.96347&language=en",
    "phone": "UNKNOWN",
    "reviews": [],
    "busy_data": {
      "days": {}
    },
    "about": {}
  },
  {
    "title": "Quyen Nguyen Van Homestay",
    "stars": "UNKNOWN",
    "num_reviews": "UNKNOWN",
    "category": "UNKNOWN",
    "address": "Hà Giang, Vietnam",
    "latitude": 22.8374329,
    "longitude": 104.9470062,
    "opening_time": [],
    "contact_url": "https://deals.vio.com/?sig=73aca13c7f952d2641c156f3e69125e1eb497c325f122828ee5aa8797168b9a12d32303331333438363233&turl=https%3A%2F%2Fwww.vio.com%2FHotel%2FSearch%3FhotelId%3D2780234%26utm_source%3Dgha-vr%26utm_campaign%3Dstatic%26openHotelDetails%3D1",
    "phone": "UNKNOWN",
    "reviews": [],
    "busy_data": {
      "days": {}
    },
    "about": {}
  },
  {
    "title": "HKT Homestay - Double Room",
    "stars": "UNKNOWN",
    "num_reviews": "UNKNOWN",
    "category": "UNKNOWN",
    "address": "Hà Giang, Vietnam",
    "latitude": 22.8271198,
    "longitude": 104.9543915,
    "opening_time": [],
    "contact_url": "https://www.bluepillow.com/search/662649f44338d48a8fca5994?dest=bkng&cat=House&lat=22.82712&lng=104.95439&language=en",
    "phone": "UNKNOWN",
    "reviews": [],
    "busy_data": {
      "days": {}
    },
    "about": {}
  },
  {
    "title": "Mountain life with Red Dzao tribe in Ha Giang",
    "stars": "UNKNOWN",
    "num_reviews": "UNKNOWN",
    "category": "UNKNOWN",
    "address": "UNKNOWN",
    "latitude": 22.76758,
    "longitude": 104.8606567,
    "opening_time": [],
    "contact_url": "https://www.bluepillow.com/search/65e2335493553be8f557f02f?dest=ago&cat=Vacation+rental+%28other%29&lat=22.76758&lng=104.86066&language=en",
    "phone": "UNKNOWN",
    "reviews": [],
    "busy_data": {
      "days": {}
    },
    "about": {}
  },
  {
    "title": "Công homestay - Double Room",
    "stars": "UNKNOWN",
    "num_reviews": "UNKNOWN",
    "category": "UNKNOWN",
    "address": "Hà Giang, Vietnam",
    "latitude": 22.83321,
    "longitude": 104.9472733,
    "opening_time": [],
    "contact_url": "https://www.bluepillow.com/search/662644a94338d48a8fc800cb?dest=bkng&cat=House&lat=22.83321&lng=104.94727&language=en",
    "phone": "UNKNOWN",
    "reviews": [],
    "busy_data": {
      "days": {}
    },
    "about": {}
  },
  {
    "title": "Time House - Tours Motorbikes Rental",
    "stars": "UNKNOWN",
    "num_reviews": "UNKNOWN",
    "category": "UNKNOWN",
    "address": "Hà Giang, Vietnam",
    "latitude": 22.8437309,
    "longitude": 104.9817276,
    "opening_time": [],
    "contact_url": "https://www.bluepillow.com/search/67a2437b905c444f2d0cca79?dest=ago&cat=Vacation+rental+%28other%29&lat=22.84373&lng=104.98173&language=en",
    "phone": "UNKNOWN",
    "reviews": [],
    "busy_data": {
      "days": {}
    },
    "about": {}
  },
  {
    "title": "Ma Pi Leng Homestay",
    "stars": "UNKNOWN",
    "num_reviews": "UNKNOWN",
    "category": "UNKNOWN",
    "address": "Hà Giang, Vietnam",
    "latitude": 22.8056297,
    "longitude": 104.9729614,
    "opening_time": [],
    "contact_url": "https://www.bluepillow.com/search/67a240cd905c444f2d0a434b?dest=ago&cat=Vacation+rental+%28other%29&lat=22.80563&lng=104.97296&language=en",
    "phone": "UNKNOWN",
    "reviews": [],
    "busy_data": {
      "days": {}
    },
    "about": {}
  },
  {
    "title": "Bamboo Room For 3 Persons",
    "stars": "UNKNOWN",
    "num_reviews": "UNKNOWN",
    "category": "UNKNOWN",
    "address": "Hà Giang, Vietnam",
    "latitude": 22.8058109,
    "longitude": 104.9778748,
    "opening_time": [],
    "contact_url": "https://www.agoda.com/bamboo-room-for-3-persons/hotel/ha-giang-vn.html",
    "phone": "UNKNOWN",
    "reviews": [],
    "busy_data": {
      "days": {}
    },
    "about": {}
  },
  {
    "title": "Ha Anh Homes",
    "stars": "UNKNOWN",
    "num_reviews": "UNKNOWN",
    "category": "UNKNOWN",
    "address": "Hà Giang, Vietnam",
    "latitude": 22.8354301,
    "longitude": 104.984642,
    "opening_time": [],
    "contact_url": "https://www.bluepillow.com/search/67a23f62905c444f2d08dac2?dest=ago&cat=Vacation+rental+%28other%29&lat=22.83543&lng=104.98464&language=en",
    "phone": "UNKNOWN",
    "reviews": [],
    "busy_data": {
      "days": {}
    },
    "about": {}
  },
  {
    "title": "Ha Giang Tourist Center 1 - Double Room with Balcony (2 Adults + 1 Child)",
    "stars": "5.0",
    "num_reviews": "UNKNOWN",
    "category": "UNKNOWN",
    "address": "Hà Giang, Vietnam",
    "latitude": 22.8160191,
    "longitude": 104.9805298,
    "opening_time": [],
    "contact_url": "https://www.bluepillow.com/search/65caba76671b07d23c6f5c08?dest=bkng&cat=House&lat=22.81602&lng=104.98053&language=en",
    "phone": "UNKNOWN",
    "reviews": [],
    "busy_data": {
      "days": {}
    },
    "about": {}
  },
  {
    "title": "Ha Giang Loop Legends",
    "stars": "UNKNOWN",
    "num_reviews": "UNKNOWN",
    "category": "UNKNOWN",
    "address": "Hà Giang, Vietnam",
    "latitude": 22.7890606,
    "longitude": 104.96875,
    "opening_time": [],
    "contact_url": "https://deals.vio.com/?sig=73aca13c7f952d2641c156f3e69125e1eb497c325f122828ee5aa8797168b9a12d32303331333438363233&turl=https%3A%2F%2Fwww.vio.com%2FHotel%2FSearch%3FhotelId%3D122374151%26utm_source%3Dgha-vr%26utm_campaign%3Dstatic%26openHotelDetails%3D1",
    "phone": "UNKNOWN",
    "reviews": [],
    "busy_data": {
      "days": {}
    },
    "about": {}
  },
  {
    "title": "Homestay Chung Thúy - Double Room with Private Bathroom",
    "stars": "UNKNOWN",
    "num_reviews": "UNKNOWN",
    "category": "UNKNOWN",
    "address": "Hà Giang, Vietnam",
    "latitude": 22.8345509,
    "longitude": 105.0187531,
    "opening_time": [],
    "contact_url": "https://www.bluepillow.com/search/654cb3513011da1e8b799224?dest=bkng&cat=House&lat=22.83455&lng=105.01875&language=en",
    "phone": "UNKNOWN",
    "reviews": [],
    "busy_data": {
      "days": {}
    },
    "about": {}
  },
  {
    "title": "Little Nho Homestay - Double Room",
    "stars": "UNKNOWN",
    "num_reviews": "UNKNOWN",
    "category": "UNKNOWN",
    "address": "Hà Giang, Vietnam",
    "latitude": 22.8000202,
    "longitude": 104.9906311,
    "opening_time": [],
    "contact_url": "https://www.bluepillow.com/search/65c9e709671b07d23c684a46/1056759202?dest=bkng&cat=House&lat=22.80002&lng=104.99063&language=en",
    "phone": "UNKNOWN",
    "reviews": [],
    "busy_data": {
      "days": {}
    },
    "about": {}
  },
  {
    "title": "Ha Giang Verdant hills - Double Room with Garden View",
    "stars": "4.0",
    "num_reviews": "UNKNOWN",
    "category": "UNKNOWN",
    "address": "Hà Giang, Vietnam",
    "latitude": 22.8141003,
    "longitude": 104.9813309,
    "opening_time": [],
    "contact_url": "https://www.bluepillow.com/search/64c8d0b5a1247fa35c62dc7b?dest=bkng&cat=House&lat=22.8141&lng=104.98133&language=en",
    "phone": "UNKNOWN",
    "reviews": [],
    "busy_data": {
      "days": {}
    },
    "about": {}
  },
  {
    "title": "Nami Apartment Ha Giang - Apartment with Balcony",
    "stars": "4.4",
    "num_reviews": "UNKNOWN",
    "category": "UNKNOWN",
    "address": "Hà Giang, Vietnam",
    "latitude": 22.8188801,
    "longitude": 104.9797592,
    "opening_time": [],
    "contact_url": "https://www.bluepillow.com/search/6335f211314064d8ba351301?dest=bkng&cat=Apartment&lat=22.81888&lng=104.97976&language=en",
    "phone": "UNKNOWN",
    "reviews": [],
    "busy_data": {
      "days": {}
    },
    "about": {}
  },
  {
    "title": "Ha Giang Lake View House - Deluxe Room (2 Adults + 1 Child)",
    "stars": "UNKNOWN",
    "num_reviews": "UNKNOWN",
    "category": "UNKNOWN",
    "address": "Hà Giang, Vietnam",
    "latitude": 22.7925701,
    "longitude": 104.9710464,
    "opening_time": [],
    "contact_url": "https://www.bluepillow.com/search/648622487f7e24c19231d1f4?dest=bkng&cat=House&lat=22.79257&lng=104.97105&language=en",
    "phone": "UNKNOWN",
    "reviews": [],
    "busy_data": {
      "days": {}
    },
    "about": {}
  },
  {
    "title": "Nhà của Dũng - Double or Twin Room with Private Bathroom",
    "stars": "4.0",
    "num_reviews": "UNKNOWN",
    "category": "UNKNOWN",
    "address": "Hà Giang, Vietnam",
    "latitude": 22.8349705,
    "longitude": 104.9879379,
    "opening_time": [],
    "contact_url": "https://www.bluepillow.com/search/654cb1633011da1e8b78ec20?dest=bkng&cat=House&lat=22.83497&lng=104.98794&language=en",
    "phone": "UNKNOWN",
    "reviews": [],
    "busy_data": {
      "days": {}
    },
    "about": {}
  },
  {
    "title": "Forest House",
    "stars": "UNKNOWN",
    "num_reviews": "UNKNOWN",
    "category": "UNKNOWN",
    "address": "UNKNOWN",
    "latitude": 22.8485603,
    "longitude": 104.9205322,
    "opening_time": [],
    "contact_url": "https://www.bluepillow.com/search/67a23da1905c444f2d07ab37?dest=ago&cat=Vacation+rental+%28other%29&lat=22.84856&lng=104.92053&language=en",
    "phone": "UNKNOWN",
    "reviews": [],
    "busy_data": {
      "days": {}
    },
    "about": {}
  },
  {
    "title": "The Art - Golden Jungle House - Bungalow Double",
    "stars": "4.9",
    "num_reviews": "UNKNOWN",
    "category": "UNKNOWN",
    "address": "Hà Giang, Vietnam",
    "latitude": 22.8194599,
    "longitude": 104.9785919,
    "opening_time": [],
    "contact_url": "https://www.bluepillow.com/search/67d164b6a21d9499fe8dd330?dest=nuit&cat=Bed+and+breakfast&lat=22.81946&lng=104.97859&language=en",
    "phone": "UNKNOWN",
    "reviews": [],
    "busy_data": {
      "days": {}
    },
    "about": {}
  },
  {
    "title": "Tay Na Bon Homestay - Standard Double Room with Shared Bathroom",
    "stars": "UNKNOWN",
    "num_reviews": "UNKNOWN",
    "category": "UNKNOWN",
    "address": "Hà Giang, Vietnam",
    "latitude": 22.7980194,
    "longitude": 104.9732132,
    "opening_time": [],
    "contact_url": "https://www.bluepillow.com/search/654cae633011da1e8b77df5a?dest=bkng&cat=House&lat=22.79802&lng=104.97321&language=en",
    "phone": "UNKNOWN",
    "reviews": [],
    "busy_data": {
      "days": {}
    },
    "about": {}
  },
  {
    "title": "GoHaGiang",
    "stars": "UNKNOWN",
    "num_reviews": "UNKNOWN",
    "category": "UNKNOWN",
    "address": "Hà Giang, Vietnam",
    "latitude": 22.8357792,
    "longitude": 104.9847488,
    "opening_time": [],
    "contact_url": "https://www.bluepillow.com/search/67a243eb905c444f2d0d70cb?dest=ago&cat=Vacation+rental+%28other%29&lat=22.83578&lng=104.98475&language=en",
    "phone": "UNKNOWN",
    "reviews": [],
    "busy_data": {
      "days": {}
    },
    "about": {}
  },
  {
    "title": "A Sính Homestay Thành phố Hà Giang",
    "stars": "UNKNOWN",
    "num_reviews": "UNKNOWN",
    "category": "UNKNOWN",
    "address": "Hà Giang, Vietnam",
    "latitude": 22.8312492,
    "longitude": 104.9880981,
    "opening_time": [],
    "contact_url": "https://www.agoda.com/a-sinh-homestay-thanh-ph-ha-giang/hotel/ha-giang-vn.html",
    "phone": "UNKNOWN",
    "reviews": [],
    "busy_data": {
      "days": {}
    },
    "about": {}
  },
  {
    "title": "CH Homestays Tour Motorbikes - Double Room",
    "stars": "UNKNOWN",
    "num_reviews": "UNKNOWN",
    "category": "UNKNOWN",
    "address": "Hà Giang, Vietnam",
    "latitude": 22.7763805,
    "longitude": 104.9694977,
    "opening_time": [],
    "contact_url": "https://www.bluepillow.com/search/695e78a6ac408a6eb70aa9cc?dest=bkng&cat=House&lat=22.77638&lng=104.9695&language=en",
    "phone": "UNKNOWN",
    "reviews": [],
    "busy_data": {
      "days": {}
    },
    "about": {}
  },
  {
    "title": "Mộc Mây Homestay Hà Giang - Bunk Bed in Mixed Dormitory Room",
    "stars": "4.3",
    "num_reviews": "UNKNOWN",
    "category": "UNKNOWN",
    "address": "Hà Giang, Vietnam",
    "latitude": 22.8373394,
    "longitude": 104.9930191,
    "opening_time": [],
    "contact_url": "https://www.bluepillow.com/search/5c30a346e24da406882f5337?dest=bkng&cat=House&lat=22.83734&lng=104.99302&language=en",
    "phone": "UNKNOWN",
    "reviews": [],
    "busy_data": {
      "days": {}
    },
    "about": {}
  },
  {
    "title": "The Rolix Auto-Home - Twin Room",
    "stars": "5.0",
    "num_reviews": "UNKNOWN",
    "category": "UNKNOWN",
    "address": "Hà Giang, Vietnam",
    "latitude": 22.8191795,
    "longitude": 104.9790802,
    "opening_time": [],
    "contact_url": "https://www.bluepillow.com/search/627d0519df4f49af9b332c59?dest=bkng&cat=House&lat=22.81918&lng=104.97908&language=en",
    "phone": "UNKNOWN",
    "reviews": [],
    "busy_data": {
      "days": {}
    },
    "about": {}
  },
  {
    "title": "OG Homes",
    "stars": "UNKNOWN",
    "num_reviews": "UNKNOWN",
    "category": "UNKNOWN",
    "address": "Hà Giang, Vietnam",
    "latitude": 22.7779694,
    "longitude": 104.9721527,
    "opening_time": [],
    "contact_url": "https://www.bluepillow.com/search/67a23e2d905c444f2d07fce8?dest=ago&cat=Vacation+rental+%28other%29&lat=22.77797&lng=104.97215&language=en",
    "phone": "UNKNOWN",
    "reviews": [],
    "busy_data": {
      "days": {}
    },
    "about": {}
  },
  {
    "title": "An Local Home Ha Giang",
    "stars": "UNKNOWN",
    "num_reviews": "UNKNOWN",
    "category": "UNKNOWN",
    "address": "Hà Giang, Vietnam",
    "latitude": 22.8188,
    "longitude": 104.957901,
    "opening_time": [],
    "contact_url": "https://www.bluepillow.com/search/67a24382905c444f2d0ccf48?dest=ago&cat=Vacation+rental+%28other%29&lat=22.8188&lng=104.9579&language=en",
    "phone": "UNKNOWN",
    "reviews": [],
    "busy_data": {
      "days": {}
    },
    "about": {}
  },
  {
    "title": "Su's Villa Hà Giang - Biệt thự nguyên căn tại trung tâm thành phố Hà Giang",
    "stars": "UNKNOWN",
    "num_reviews": "UNKNOWN",
    "category": "UNKNOWN",
    "address": "Hà Giang, Vietnam",
    "latitude": 22.8160515,
    "longitude": 104.9805908,
    "opening_time": [],
    "contact_url": "https://www.booking.com/hotel/vn/biet-thu-nguyen-can-sus-villa-ha-giang.en.html?aid=2068758;label=seogooglelocal-link-imagesaow-hotel-10047449_grp-1_gendate-20240917;utm_source=seogooglelocal;utm_medium=description;utm_term=hotel-10047449;utm_campaign=en",
    "phone": "UNKNOWN",
    "reviews": [],
    "busy_data": {
      "days": {}
    },
    "about": {}
  },
  {
    "title": "Changi homestay and motobike for rent - Double Room with Private Bathroom",
    "stars": "UNKNOWN",
    "num_reviews": "UNKNOWN",
    "category": "UNKNOWN",
    "address": "Hà Giang, Vietnam",
    "latitude": 22.8370209,
    "longitude": 104.9810867,
    "opening_time": [],
    "contact_url": "https://www.bluepillow.com/search/648622c77f7e24c192322885?dest=bkng&cat=House&lat=22.83702&lng=104.98109&language=en",
    "phone": "UNKNOWN",
    "reviews": [],
    "busy_data": {
      "days": {}
    },
    "about": {}
  },
  {
    "title": "Pao home - Bed in 8-Bed Mixed Dormitory Room",
    "stars": "UNKNOWN",
    "num_reviews": "UNKNOWN",
    "category": "UNKNOWN",
    "address": "Hà Giang, Vietnam",
    "latitude": 22.8338909,
    "longitude": 104.9916992,
    "opening_time": [],
    "contact_url": "https://www.bluepillow.com/search/63990193c551970d3c779ca4?dest=bkng&cat=House&lat=22.83389&lng=104.9917&language=en",
    "phone": "UNKNOWN",
    "reviews": [],
    "busy_data": {
      "days": {}
    },
    "about": {}
  },
  {
    "title": "Zing Home, No. 56, Le Tran Man, Phuong Thien, Ha Giang",
    "stars": "UNKNOWN",
    "num_reviews": "UNKNOWN",
    "category": "UNKNOWN",
    "address": "Hà Giang, Vietnam",
    "latitude": 22.8025589,
    "longitude": 104.978447,
    "opening_time": [],
    "contact_url": "https://www.agoda.com/zing-home-56-le-tr-n-man-phuong-thi-n-ha-giang/hotel/lang-lap-vn.html",
    "phone": "UNKNOWN",
    "reviews": [],
    "busy_data": {
      "days": {}
    },
    "about": {}
  },
  {
    "title": "Cao Banh Homestay - Double Room with Shared Bathroom",
    "stars": "UNKNOWN",
    "num_reviews": "UNKNOWN",
    "category": "UNKNOWN",
    "address": "Hà Giang, Vietnam",
    "latitude": 22.7972908,
    "longitude": 104.9572372,
    "opening_time": [],
    "contact_url": "https://www.bluepillow.com/search/65ca0631671b07d23c6a4bb4?dest=bkng&cat=House&lat=22.79729&lng=104.95724&language=en",
    "phone": "UNKNOWN",
    "reviews": [],
    "busy_data": {
      "days": {}
    },
    "about": {}
  },
  {
    "title": "Ha Giang Xe Dich",
    "stars": "UNKNOWN",
    "num_reviews": "UNKNOWN",
    "category": "UNKNOWN",
    "address": "Hà Giang, Vietnam",
    "latitude": 22.8370209,
    "longitude": 104.9810791,
    "opening_time": [],
    "contact_url": "https://www.bluepillow.com/search/67a23fa5905c444f2d0926ea?dest=ago&cat=Vacation+rental+%28other%29&lat=22.83702&lng=104.98108&language=en",
    "phone": "UNKNOWN",
    "reviews": [],
    "busy_data": {
      "days": {}
    },
    "about": {}
  },
  {
    "title": "An House Coffee - Motorbike Rental",
    "stars": "UNKNOWN",
    "num_reviews": "UNKNOWN",
    "category": "UNKNOWN",
    "address": "Hà Giang, Vietnam",
    "latitude": 22.8210907,
    "longitude": 104.9728622,
    "opening_time": [],
    "contact_url": "https://www.bluepillow.com/search/67a2421e905c444f2d0b9966?dest=ago&cat=Vacation+rental+%28other%29&lat=22.82109&lng=104.97286&language=en",
    "phone": "UNKNOWN",
    "reviews": [],
    "busy_data": {
      "days": {}
    },
    "about": {}
  },
  {
    "title": "Huong Tra 2",
    "stars": "UNKNOWN",
    "num_reviews": "UNKNOWN",
    "category": "UNKNOWN",
    "address": "Hà Giang, Vietnam",
    "latitude": 22.8303604,
    "longitude": 104.9835205,
    "opening_time": [],
    "contact_url": "https://www.bluepillow.com/search/67a23c42905c444f2d06ea8d?dest=ago&cat=Vacation+rental+%28other%29&lat=22.83036&lng=104.98352&language=en",
    "phone": "UNKNOWN",
    "reviews": [],
    "busy_data": {
      "days": {}
    },
    "about": {}
  },
  {
    "title": "Thanh Homestay Ha Giang",
    "stars": "UNKNOWN",
    "num_reviews": "UNKNOWN",
    "category": "UNKNOWN",
    "address": "Hà Giang, Vietnam",
    "latitude": 22.8167286,
    "longitude": 104.9756699,
    "opening_time": [],
    "contact_url": "https://deals.vio.com/?sig=73aca13c7f952d2641c156f3e69125e1eb497c325f122828ee5aa8797168b9a12d32303331333438363233&turl=https%3A%2F%2Fwww.vio.com%2FHotel%2FSearch%3FhotelId%3D19889264%26utm_source%3Dgha-vr%26utm_campaign%3Dstatic%26openHotelDetails%3D1",
    "phone": "UNKNOWN",
    "reviews": [],
    "busy_data": {
      "days": {}
    },
    "about": {}
  },
  {
    "title": "TôGia Home - Double Room with Private Bathroom",
    "stars": "UNKNOWN",
    "num_reviews": "UNKNOWN",
    "category": "UNKNOWN",
    "address": "Hà Giang, Vietnam",
    "latitude": 22.8350105,
    "longitude": 104.9879608,
    "opening_time": [],
    "contact_url": "https://www.bluepillow.com/search/662649fb4338d48a8fca5e23?dest=bkng&cat=House&lat=22.83501&lng=104.98796&language=en",
    "phone": "UNKNOWN",
    "reviews": [],
    "busy_data": {
      "days": {}
    },
    "about": {}
  },
  {
    "title": "Bull Motorbikes and Tours",
    "stars": "UNKNOWN",
    "num_reviews": "UNKNOWN",
    "category": "UNKNOWN",
    "address": "Hà Giang, Vietnam",
    "latitude": 22.8049297,
    "longitude": 104.9787064,
    "opening_time": [],
    "contact_url": "https://www.agoda.com/bull-motorbikes-and-tours-h49450003/hotel/ha-giang-vn.html",
    "phone": "UNKNOWN",
    "reviews": [],
    "busy_data": {
      "days": {}
    },
    "about": {}
  },
  {
    "title": "Phòng nghỉ tập thể",
    "stars": "UNKNOWN",
    "num_reviews": "UNKNOWN",
    "category": "UNKNOWN",
    "address": "Hà Giang, Vietnam",
    "latitude": 22.8406944,
    "longitude": 104.9799042,
    "opening_time": [],
    "contact_url": "https://www.booking.com/hotel/vn/phong-nghi-tap-the.en.html?aid=2068758;label=seogooglelocal-link-imagesaow-hotel-10964491_grp-3_gendate-20240917;utm_source=seogooglelocal;utm_medium=description;utm_term=hotel-10964491;utm_campaign=en",
    "phone": "UNKNOWN",
    "reviews": [],
    "busy_data": {
      "days": {}
    },
    "about": {}
  },
  {
    "title": "Maxx binhh - One-Bedroom House",
    "stars": "UNKNOWN",
    "num_reviews": "UNKNOWN",
    "category": "UNKNOWN",
    "address": "Hà Giang, Vietnam",
    "latitude": 22.8025608,
    "longitude": 104.978447,
    "opening_time": [],
    "contact_url": "https://www.bluepillow.com/search/648582907f7e24c1922cf0b1?dest=bkng&cat=House&lat=22.80256&lng=104.97845&language=en",
    "phone": "UNKNOWN",
    "reviews": [],
    "busy_data": {
      "days": {}
    },
    "about": {}
  },
  {
    "title": "Zing Home, 56 Lê Trần Mãn, Phương Thiện, Hà Giang",
    "stars": "UNKNOWN",
    "num_reviews": "UNKNOWN",
    "category": "UNKNOWN",
    "address": "Hà Giang, Vietnam",
    "latitude": 22.8007088,
    "longitude": 104.9766769,
    "opening_time": [],
    "contact_url": "https://www.agoda.com/zing-home-56-le-tr-n-man-phuong-thi-n-ha-giang-h66750519/hotel/lang-lap-vn.html",
    "phone": "UNKNOWN",
    "reviews": [],
    "busy_data": {
      "days": {}
    },
    "about": {}
  },
  {
    "title": "Homestay Làng Châng - Bed in 10-Bed Mixed Dormitory Room",
    "stars": "UNKNOWN",
    "num_reviews": "UNKNOWN",
    "category": "UNKNOWN",
    "address": "Hà Giang, Vietnam",
    "latitude": 22.7966099,
    "longitude": 104.9714813,
    "opening_time": [],
    "contact_url": "https://www.bluepillow.com/search/65833d4f6c560103cb455d1b?dest=bkng&cat=House&lat=22.79661&lng=104.97148&language=en",
    "phone": "UNKNOWN",
    "reviews": [],
    "busy_data": {
      "days": {}
    },
    "about": {}
  },
  {
    "title": "Co Home",
    "stars": "4.2",
    "num_reviews": "UNKNOWN",
    "category": "UNKNOWN",
    "address": "Hà Giang, Vietnam",
    "latitude": 22.8168602,
    "longitude": 104.9791489,
    "opening_time": [],
    "contact_url": "https://deals.vio.com/?sig=73aca13c7f952d2641c156f3e69125e1eb497c325f122828ee5aa8797168b9a12d32303331333438363233&turl=https%3A%2F%2Fwww.vio.com%2FHotel%2FSearch%3FhotelId%3D6497329%26utm_source%3Dgha-vr%26utm_campaign%3Dstatic%26openHotelDetails%3D1",
    "phone": "UNKNOWN",
    "reviews": [],
    "busy_data": {
      "days": {}
    },
    "about": {}
  },
  {
    "title": "Strawberry House - Double Room",
    "stars": "0.5",
    "num_reviews": "UNKNOWN",
    "category": "UNKNOWN",
    "address": "Hà Giang, Vietnam",
    "latitude": 22.8262691,
    "longitude": 104.9755096,
    "opening_time": [],
    "contact_url": "https://www.bluepillow.com/search/648583217f7e24c1922d1de8?dest=bkng&cat=House&lat=22.82627&lng=104.97551&language=en",
    "phone": "UNKNOWN",
    "reviews": [],
    "busy_data": {
      "days": {}
    },
    "about": {}
  },
  {
    "title": "Tom' motobikes tour home stay - Mixed Dormitory Room",
    "stars": "5.0",
    "num_reviews": "UNKNOWN",
    "category": "UNKNOWN",
    "address": "Hà Giang, Vietnam",
    "latitude": 22.8150597,
    "longitude": 104.9829712,
    "opening_time": [],
    "contact_url": "https://www.bluepillow.com/search/648620027f7e24c19230c1e0?dest=bkng&cat=House&lat=22.81506&lng=104.98297&language=en",
    "phone": "UNKNOWN",
    "reviews": [],
    "busy_data": {
      "days": {}
    },
    "about": {}
  },
  {
    "title": "Phòng nghỉ tập thể - Two-Bedroom Apartment",
    "stars": "UNKNOWN",
    "num_reviews": "UNKNOWN",
    "category": "UNKNOWN",
    "address": "Hà Giang, Vietnam",
    "latitude": 22.8407001,
    "longitude": 104.9799118,
    "opening_time": [],
    "contact_url": "https://www.bluepillow.com/search/654cb2913011da1e8b795923?dest=bkng&cat=Apartment&lat=22.8407&lng=104.97991&language=en",
    "phone": "UNKNOWN",
    "reviews": [],
    "busy_data": {
      "days": {}
    },
    "about": {}
  },
  {
    "title": "NAM THA homestay - One-Bedroom Apartment",
    "stars": "UNKNOWN",
    "num_reviews": "UNKNOWN",
    "category": "UNKNOWN",
    "address": "Hà Giang, Vietnam",
    "latitude": 22.8384094,
    "longitude": 104.933342,
    "opening_time": [],
    "contact_url": "https://www.bluepillow.com/search/65ca05c1671b07d23c6a4129?dest=bkng&cat=Apartment&lat=22.83841&lng=104.93334&language=en",
    "phone": "UNKNOWN",
    "reviews": [],
    "busy_data": {
      "days": {}
    },
    "about": {}
  },
  {
    "title": "Tour Dong Van stone plateau - Quadruple Room With Shared Bathroom",
    "stars": "UNKNOWN",
    "num_reviews": "UNKNOWN",
    "category": "UNKNOWN",
    "address": "Hà Giang, Vietnam",
    "latitude": 22.8383808,
    "longitude": 105.004982,
    "opening_time": [],
    "contact_url": "https://www.bluepillow.com/search/68e3dbc1f93025efada9de31?dest=nuit&cat=Bed+and+breakfast&lat=22.83838&lng=105.00498&language=en",
    "phone": "UNKNOWN",
    "reviews": [],
    "busy_data": {
      "days": {}
    },
    "about": {}
  },
  {
    "title": "Luxury Room For 2 Person",
    "stars": "UNKNOWN",
    "num_reviews": "UNKNOWN",
    "category": "UNKNOWN",
    "address": "Hà Giang, Vietnam",
    "latitude": 22.8058147,
    "longitude": 104.9778824,
    "opening_time": [],
    "contact_url": "https://www.agoda.com/luxury-room-for-2-person/hotel/ha-giang-vn.html",
    "phone": "UNKNOWN",
    "reviews": [],
    "busy_data": {
      "days": {}
    },
    "about": {}
  },
  {
    "title": "Vân Thủy Thiên Hà - Deluxe Room",
    "stars": "UNKNOWN",
    "num_reviews": "UNKNOWN",
    "category": "UNKNOWN",
    "address": "Hà Giang, Vietnam",
    "latitude": 22.8249893,
    "longitude": 104.9608536,
    "opening_time": [],
    "contact_url": "https://www.bluepillow.com/search/662647724338d48a8fc9441c?dest=bkng&cat=House&lat=22.82499&lng=104.96085&language=en",
    "phone": "UNKNOWN",
    "reviews": [],
    "busy_data": {
      "days": {}
    },
    "about": {}
  },
  {
    "title": "HAGTrip Hotel",
    "stars": "UNKNOWN",
    "num_reviews": "UNKNOWN",
    "category": "UNKNOWN",
    "address": "Hà Giang, Vietnam",
    "latitude": 22.8412094,
    "longitude": 104.9989471,
    "opening_time": [],
    "contact_url": "https://www.bluepillow.com/search/67a243c3905c444f2d0d268b?dest=ago&cat=Vacation+rental+%28other%29&lat=22.84121&lng=104.99895&language=en",
    "phone": "UNKNOWN",
    "reviews": [],
    "busy_data": {
      "days": {}
    },
    "about": {}
  },
  {
    "title": "Thon Tha Tay Stilt House",
    "stars": "5.0",
    "num_reviews": "UNKNOWN",
    "category": "UNKNOWN",
    "address": "Hà Giang, Vietnam",
    "latitude": 22.8412991,
    "longitude": 104.9434433,
    "opening_time": [],
    "contact_url": "https://deals.vio.com/?sig=73aca13c7f952d2641c156f3e69125e1eb497c325f122828ee5aa8797168b9a12d32303331333438363233&turl=https%3A%2F%2Fwww.vio.com%2FHotel%2FSearch%3FhotelId%3D4039984%26utm_source%3Dgha-vr%26utm_campaign%3Dstatic%26openHotelDetails%3D1",
    "phone": "UNKNOWN",
    "reviews": [],
    "busy_data": {
      "days": {}
    },
    "about": {}
  },
  {
    "title": "Nhà nghỉ Thu Thảo - One-Bedroom Apartment",
    "stars": "UNKNOWN",
    "num_reviews": "UNKNOWN",
    "category": "UNKNOWN",
    "address": "Hà Giang, Vietnam",
    "latitude": 22.8226395,
    "longitude": 104.9644394,
    "opening_time": [],
    "contact_url": "UNKNOWN",
    "phone": "UNKNOWN",
    "reviews": [],
    "busy_data": {
      "days": {}
    },
    "about": {}
  }
]